02:36:48  $GPRMC,023648.00,A,2309.52824,N,11320.33626,E,0.009,,070617,,,A*77
02:36:48  $GPVTG,,T,,M,0.009,N,0.016,K,A*2D
02:36:48  $GPGGA,023648.00,2309.52824,N,11320.33626,E,1,05,2.69,41.9,M,-5.4,M,,*7D
02:36:48  $GPGSA,A,3,31,03,27,08,11,,,,,,,,3.27,2.69,1.85*09
02:36:48  $GPGSV,3,1,09,03,09,232,40,08,51,202,40,11,07,195,33,22,,,31*4F
02:36:48  $GPGSV,3,2,09,23,,,26,27,81,116,36,31,24,102,36,32,,,24*7E
02:36:48  $GPGSV,3,3,09,50,45,122,31*47
02:36:48  $GPGLL,2309.52824,N,11320.33626,E,023648.00,A,A*60
02:36:49  $GPRMC,023649.00,A,2309.52825,N,11320.33627,E,0.046,,070617,,,A*7D
02:36:49  $GPVTG,,T,,M,0.046,N,0.085,K,A*2C
02:36:49  $GPGGA,023649.00,2309.52825,N,11320.33627,E,1,05,2.69,41.9,M,-5.4,M,,*7C
02:36:49  $GPGSA,A,3,31,03,27,08,11,,,,,,,,3.27,2.69,1.85*09
02:36:49  $GPGSV,2,1,08,03,09,232,39,08,51,202,40,11,07,195,33,22,,,31*41
02:36:49  $GPGSV,2,2,08,23,,,27,27,81,116,38,31,24,102,36,50,45,122,31*41
02:36:49  $GPGLL,2309.52825,N,11320.33627,E,023649.00,A,A*61
02:36:50  $GPRMC,023650.00,A,2309.52823,N,11320.33628,E,0.034,,070617,,,A*79
02:36:50  $GPVTG,,T,,M,0.034,N,0.063,K,A*21
02:36:50  $GPGGA,023650.00,2309.52823,N,11320.33628,E,1,05,2.69,41.9,M,-5.4,M,,*7D
02:36:50  $GPGSA,A,3,31,03,27,08,11,,,,,,,,3.27,2.69,1.85*09
02:36:50  $GPGSV,2,1,08,03,09,232,38,08,51,202,39,11,07,195,32,22,,,31*4F
02:36:50  $GPGSV,2,2,08,23,,,26,27,81,116,37,31,24,102,36,50,45,122,31*4F
02:36:50  $GPGLL,2309.52823,N,11320.33628,E,023650.00,A,A*60
02:36:51  $GPRMC,023651.00,A,2309.52825,N,11320.33629,E,0.051,,070617,,,A*7C
02:36:51  $GPVTG,,T,,M,0.051,N,0.094,K,A*2A
02:36:51  $GPGGA,023651.00,2309.52825,N,11320.33629,E,1,05,2.69,41.9,M,-5.4,M,,*7B
02:36:51  $GPGSA,A,3,31,03,27,08,11,,,,,,,,3.27,2.69,1.85*09
02:36:51  $GPGSV,2,1,08,03,09,232,39,08,51,202,41,11,07,195,33,22,,,31*40
02:36:51  $GPGSV,2,2,08,23,,,26,27,81,116,38,31,24,102,36,50,45,122,32*43
02:36:51  $GPGLL,2309.52825,N,11320.33629,E,023651.00,A,A*66
02:36:52  $GPRMC,023652.00,A,2309.52800,N,11320.33637,E,0.983,,070617,,,A*71
02:36:52  $GPVTG,,T,,M,0.983,N,1.820,K,A*2A
02:36:52  $GPGGA,023652.00,2309.52800,N,11320.33637,E,1,05,2.69,41.9,M,-5.4,M,,*70
02:36:52  $GPGSA,A,3,31,03,27,08,11,,,,,,,,3.27,2.69,1.86*0A
02:36:52  $GPGSV,2,1,08,03,09,232,36,08,51,202,38,11,07,195,27,22,,,25*41
02:36:52  $GPGSV,2,2,08,23,,,25,27,81,116,30,31,24,102,40,50,45,122,36*4D
02:36:52  $GPGLL,2309.52800,N,11320.33637,E,023652.00,A,A*6D
02:36:53  $GPRMC,023653.00,A,2309.52783,N,11320.33662,E,1.092,,070617,,,A*7C
02:36:53  $GPVTG,,T,,M,1.092,N,2.023,K,A*2A
02:36:53  $GPGGA,023653.00,2309.52783,N,11320.33662,E,1,05,2.69,42.0,M,-5.4,M,,*7F
02:36:53  $GPGSA,A,3,31,03,27,08,11,,,,,,,,3.27,2.69,1.86*0A
02:36:53  $GPGSV,2,1,08,03,09,232,34,08,51,202,42,11,07,195,25,22,,,31*49
02:36:53  $GPGSV,2,2,08,23,,,30,27,81,116,37,31,24,102,29,50,45,122,34*43
02:36:53  $GPGLL,2309.52783,N,11320.33662,E,023653.00,A,A*68
02:36:54  $GPRMC,023654.00,A,2309.52762,N,11320.33698,E,1.003,,070617,,,A*79
02:36:54  $GPVTG,,T,,M,1.003,N,1.858,K,A*25
02:36:54  $GPGGA,023654.00,2309.52762,N,11320.33698,E,1,05,2.69,41.8,M,-5.4,M,,*79
02:36:54  $GPGSA,A,3,31,03,27,08,11,,,,,,,,3.27,2.69,1.86*0A
02:36:54  $GPGSV,2,1,08,03,09,232,25,08,51,202,41,11,07,195,32,22,,,31*4C
02:36:54  $GPGSV,2,2,08,23,,,23,27,81,116,37,31,24,102,34,50,45,122,34*4D
02:36:54  $GPGLL,2309.52762,N,11320.33698,E,023654.00,A,A*65
02:36:55  $GPRMC,023655.00,A,2309.52754,N,11320.33735,E,1.423,,070617,,,A*7D
02:36:55  $GPVTG,,T,,M,1.423,N,2.635,K,A*25
02:36:55  $GPGGA,023655.00,2309.52754,N,11320.33735,E,1,05,2.69,42.1,M,-5.4,M,,*71
02:36:55  $GPGSA,A,3,31,03,27,08,11,,,,,,,,3.27,2.69,1.86*0A
02:36:55  $GPGSV,3,1,09,03,09,232,30,08,51,202,39,11,07,195,31,14,,,30*40
02:36:55  $GPGSV,3,2,09,22,,,30,23,,,30,27,81,116,37,31,24,102,28*73
02:36:55  $GPGSV,3,3,09,50,45,122,28*4F
02:36:55  $GPGLL,2309.52754,N,11320.33735,E,023655.00,A,A*67
02:36:56  $GPRMC,023656.00,A,2309.52842,N,11320.33723,E,3.101,,070617,,,A*76
02:36:56  $GPVTG,,T,,M,3.101,N,5.742,K,A*24
02:36:56  $GPGGA,023656.00,2309.52842,N,11320.33723,E,1,05,2.69,42.9,M,-5.4,M,,*75
02:36:56  $GPGSA,A,3,31,03,27,08,11,,,,,,,,3.27,2.69,1.86*0A
02:36:56  $GPGSV,3,1,09,03,09,232,24,08,51,202,47,11,07,195,30,14,,,24*48
02:36:56  $GPGSV,3,2,09,22,,,34,23,,,29,27,81,116,37,31,24,102,28*7F
02:36:56  $GPGSV,3,3,09,50,45,122,30*46
02:36:56  $GPGLL,2309.52842,N,11320.33723,E,023656.00,A,A*6B
02:36:57  $GPRMC,023657.00,A,2309.52975,N,11320.33719,E,4.109,,070617,,,A*74
02:36:57  $GPVTG,,T,,M,4.109,N,7.610,K,A*2F
02:36:57  $GPGGA,023657.00,2309.52975,N,11320.33719,E,1,05,2.88,42.4,M,-5.4,M,,*7A
02:36:57  $GPGSA,A,2,31,03,27,08,11,,,,,,,,3.04,2.88,1.00*0B
02:36:57  $GPGSV,3,1,09,03,09,232,23,08,51,202,40,11,07,195,24,14,,,22*4B
02:36:57  $GPGSV,3,2,09,22,,,23,23,,,21,27,81,116,37,31,24,102,34*7C
02:36:57  $GPGSV,3,3,09,50,45,122,33*45
02:36:57  $GPGLL,2309.52975,N,11320.33719,E,023657.00,A,A*66
02:36:58  $GPRMC,023658.00,A,2309.53084,N,11320.33949,E,4.781,,070617,,,A*70
02:36:58  $GPVTG,,T,,M,4.781,N,8.854,K,A*28
02:36:58  $GPGGA,023658.00,2309.53084,N,11320.33949,E,1,04,3.32,36.6,M,-5.4,M,,*78
02:36:58  $GPGSA,A,3,31,03,27,11,,,,,,,,,4.30,3.32,2.73*05
02:36:58  $GPGSV,3,1,09,03,09,232,22,08,51,202,,11,07,195,26,14,,,19*44
02:36:58  $GPGSV,3,2,09,22,,,19,23,,,22,27,81,116,34,31,24,102,34*75
02:36:58  $GPGSV,3,3,09,50,45,122,31*47
02:36:58  $GPGLL,2309.53084,N,11320.33949,E,023658.00,A,A*64
02:36:59  $GPRMC,023659.00,A,2309.52937,N,11320.34112,E,2.764,,070617,,,A*7D
02:36:59  $GPVTG,,T,,M,2.764,N,5.119,K,A*28
02:36:59  $GPGGA,023659.00,2309.52937,N,11320.34112,E,1,05,2.69,33.0,M,-5.4,M,,*75
02:36:59  $GPGSA,A,3,31,03,27,08,11,,,,,,,,3.27,2.69,1.86*0A
02:36:59  $GPGSV,2,1,08,03,09,232,22,08,51,202,42,11,07,195,26,22,,,19*47
02:36:59  $GPGSV,2,2,08,23,,,26,27,81,116,35,31,24,102,39,50,45,122,34*47
02:36:59  $GPGLL,2309.52937,N,11320.34112,E,023659.00,A,A*64
02:37:00  $GPRMC,023700.00,A,2309.52835,N,11320.34121,E,4.236,,070617,,,A*77
02:37:00  $GPVTG,,T,,M,4.236,N,7.846,K,A*2D
02:37:00  $GPGGA,023700.00,2309.52835,N,11320.34121,E,1,05,2.69,34.7,M,-5.4,M,,*7B
02:37:00  $GPGSA,A,3,31,03,27,08,11,,,,,,,,3.27,2.69,1.86*0A
02:37:00  $GPGSV,2,1,08,03,09,232,22,08,51,202,42,11,07,195,27,22,,,26*4A
02:37:00  $GPGSV,2,2,08,23,,,27,27,81,116,35,31,24,102,35,50,45,122,34*4A
02:37:00  $GPGLL,2309.52835,N,11320.34121,E,023700.00,A,A*6A
02:37:01  $GPRMC,023701.00,A,2309.52818,N,11320.34198,E,3.118,,070617,,,A*73
02:37:01  $GPVTG,,T,,M,3.118,N,5.775,K,A*28
02:37:01  $GPGGA,023701.00,2309.52818,N,11320.34198,E,1,05,2.69,32.7,M,-5.4,M,,*71
02:37:01  $GPGSA,A,3,31,03,27,08,11,,,,,,,,3.27,2.69,1.86*0A
02:37:01  $GPGSV,2,1,08,03,09,232,23,08,51,202,42,11,07,195,30,22,,,25*4E
02:37:01  $GPGSV,2,2,08,23,,,31,27,81,116,39,31,24,102,32,50,45,122,37*45
02:37:01  $GPGLL,2309.52818,N,11320.34198,E,023701.00,A,A*66
02:37:02  $GPRMC,023702.00,A,2309.52903,N,11320.34256,E,4.301,,070617,,,A*77
02:37:02  $GPVTG,,T,,M,4.301,N,7.965,K,A*28
02:37:02  $GPGGA,023702.00,2309.52903,N,11320.34256,E,1,05,2.69,32.5,M,-5.4,M,,*7A
02:37:02  $GPGSA,A,3,31,03,27,08,11,,,,,,,,3.27,2.69,1.86*0A
02:37:02  $GPGSV,2,1,08,03,09,232,21,08,51,202,38,11,07,195,22,22,,,22*45
02:37:02  $GPGSV,2,2,08,23,,,38,27,81,116,36,31,24,102,35,50,45,122,33*40
02:37:02  $GPGLL,2309.52903,N,11320.34256,E,023702.00,A,A*6F
02:37:03  $GPRMC,023703.00,A,2309.53119,N,11320.34216,E,5.379,98.09,070617,,,A*58
02:37:03  $GPVTG,98.09,T,,M,5.379,N,9.961,K,A*0A
02:37:03  $GPGGA,023703.00,2309.53119,N,11320.34216,E,1,05,2.69,31.0,M,-5.4,M,,*7B
02:37:03  $GPGSA,A,3,31,03,27,08,11,,,,,,,,3.27,2.69,1.86*0A
02:37:03  $GPGSV,3,1,09,03,09,232,21,04,,,33,08,51,202,36,11,07,195,24*49
02:37:03  $GPGSV,3,2,09,22,,,21,23,,,38,27,81,116,36,31,24,102,26*74
02:37:03  $GPGSV,3,3,09,50,45,122,33*45
02:37:03  $GPGLL,2309.53119,N,11320.34216,E,023703.00,A,A*68
02:37:04  $GPRMC,023704.00,A,2309.53052,N,11320.34323,E,4.330,,070617,,,A*7C
02:37:04  $GPVTG,,T,,M,4.330,N,8.018,K,A*26
02:37:04  $GPGGA,023704.00,2309.53052,N,11320.34323,E,1,05,2.69,30.6,M,-5.4,M,,*72
02:37:04  $GPGSA,A,3,31,03,27,08,11,,,,,,,,3.27,2.69,1.86*0A
02:37:04  $GPGSV,3,1,09,03,09,232,22,04,,,25,08,51,202,41,11,07,195,30*48
02:37:04  $GPGSV,3,2,09,22,,,22,23,,,36,27,81,116,34,31,24,102,26*7B
02:37:04  $GPGSV,3,3,09,50,45,122,32*44
02:37:04  $GPGLL,2309.53052,N,11320.34323,E,023704.00,A,A*66
02:37:05  $GPRMC,023705.00,A,2309.52910,N,11320.34458,E,3.974,,070617,,,A*75
02:37:05  $GPVTG,,T,,M,3.974,N,7.360,K,A*28
02:37:05  $GPGGA,023705.00,2309.52910,N,11320.34458,E,1,05,2.69,35.6,M,-5.4,M,,*73
02:37:05  $GPGSA,A,3,31,03,27,08,11,,,,,,,,3.27,2.69,1.86*0A
02:37:05  $GPGSV,3,1,10,03,09,232,25,04,,,31,08,51,202,41,11,07,195,30*42
02:37:05  $GPGSV,3,2,10,16,,,35,22,,,23,23,,,36,27,81,116,35*41
02:37:05  $GPGSV,3,3,10,31,24,102,32,50,45,122,32*7A
02:37:05  $GPGLL,2309.52910,N,11320.34458,E,023705.00,A,A*62
02:37:06  $GPRMC,023706.00,A,2309.52951,N,11320.34507,E,2.706,,070617,,,A*72
02:37:06  $GPVTG,,T,,M,2.706,N,5.012,K,A*26
02:37:06  $GPGGA,023706.00,2309.52951,N,11320.34507,E,1,05,9.74,33.1,M,-5.4,M,,*78
02:37:06  $GPGSA,A,3,31,03,27,08,11,,,,,,,,11.74,9.74,6.57*33
02:37:06  $GPGSV,3,1,10,03,09,232,25,04,,,30,08,51,202,37,11,07,195,29*4A
02:37:06  $GPGSV,3,2,10,16,,,32,22,,,25,23,,,38,27,81,116,30*4B
02:37:06  $GPGSV,3,3,10,31,24,102,27,50,45,122,32*7E
02:37:06  $GPGLL,2309.52951,N,11320.34507,E,023706.00,A,A*6F
02:37:07  $GPRMC,023707.00,A,2309.52949,N,11320.34591,E,1.920,,070617,,,A*7C
02:37:07  $GPVTG,,T,,M,1.920,N,3.557,K,A*2D
02:37:07  $GPGGA,023707.00,2309.52949,N,11320.34591,E,1,05,2.69,33.3,M,-5.4,M,,*7A
02:37:07  $GPGSA,A,3,31,03,27,08,11,,,,,,,,3.27,2.69,1.86*0A
02:37:07  $GPGSV,3,1,10,03,09,232,25,04,,,35,08,51,202,38,11,07,195,27*4E
02:37:07  $GPGSV,3,2,10,16,,,28,22,,,24,23,,,38,27,81,116,33*42
02:37:07  $GPGSV,3,3,10,31,24,102,36,50,45,122,34*78
02:37:07  $GPGLL,2309.52949,N,11320.34591,E,023707.00,A,A*68
02:37:08  $GPRMC,023708.00,A,2309.52952,N,11320.34665,E,2.464,,070617,,,A*7F
02:37:08  $GPVTG,,T,,M,2.464,N,4.564,K,A*24
02:37:08  $GPGGA,023708.00,2309.52952,N,11320.34665,E,1,05,2.69,33.3,M,-5.4,M,,*77
02:37:08  $GPGSA,A,3,31,03,27,08,11,,,,,,,,3.27,2.69,1.86*0A
02:37:08  $GPGSV,3,1,11,03,09,232,25,04,,,32,08,51,202,39,11,07,195,32*4D
02:37:08  $GPGSV,3,2,11,16,,,33,22,,,23,23,,,37,26,,,33*7F
02:37:08  $GPGSV,3,3,11,27,81,116,33,31,24,102,33,50,45,122,32*40
02:37:08  $GPGLL,2309.52952,N,11320.34665,E,023708.00,A,A*65
02:37:09  $GPRMC,023709.00,A,2309.52795,N,11320.34767,E,0.704,,070617,,,A*7F
02:37:09  $GPVTG,,T,,M,0.704,N,1.304,K,A*26
02:37:09  $GPGGA,023709.00,2309.52795,N,11320.34767,E,1,05,2.98,36.4,M,-5.4,M,,*7C
02:37:09  $GPGSA,A,3,31,03,27,08,11,,,,,,,,3.64,2.98,2.08*06
02:37:09  $GPGSV,3,1,11,03,09,232,25,04,,,31,08,51,202,41,11,07,195,31*42
02:37:09  $GPGSV,3,2,11,16,,,36,22,,,30,23,,,37,26,,,28*72
02:37:09  $GPGSV,3,3,11,27,81,116,29,31,24,102,29,50,45,122,32*40
02:37:09  $GPGLL,2309.52795,N,11320.34767,E,023709.00,A,A*62
02:37:10  $GPRMC,023710.00,A,2309.52755,N,11320.34890,E,2.886,,070617,,,A*7B
02:37:10  $GPVTG,,T,,M,2.886,N,5.344,K,A*21
02:37:10  $GPGGA,023710.00,2309.52755,N,11320.34890,E,1,04,2.98,39.0,M,-5.4,M,,*75
02:37:10  $GPGSA,A,3,31,03,08,11,,,,,,,,,3.64,2.98,2.08*03
02:37:10  $GPGSV,3,1,11,03,09,232,25,04,,,26,08,51,202,36,11,07,195,26*42
02:37:10  $GPGSV,3,2,11,16,,,33,22,,,23,23,,,30,26,,,28*72
02:37:10  $GPGSV,3,3,11,27,81,116,,31,24,102,27,50,45,122,31*46
02:37:10  $GPGLL,2309.52755,N,11320.34890,E,023710.00,A,A*61
02:37:11  $GPRMC,023711.00,A,2309.52943,N,11320.35045,E,6.847,,070617,,,A*7B
02:37:11  $GPVTG,,T,,M,6.847,N,12.681,K,A*12
02:37:11  $GPGGA,023711.00,2309.52943,N,11320.35045,E,1,05,2.69,36.8,M,-5.4,M,,*74
02:37:11  $GPGSA,A,3,31,03,27,08,11,,,,,,,,3.27,2.69,1.86*0A
02:37:11  $GPGSV,3,1,11,03,09,232,25,04,,,31,08,51,202,39,11,07,195,30*4C
02:37:11  $GPGSV,3,2,11,16,,,32,22,,,28,23,,,33,26,,,27*74
02:37:11  $GPGSV,3,3,11,27,81,116,31,31,24,102,27,50,45,122,31*44
02:37:11  $GPGLL,2309.52943,N,11320.35045,E,023711.00,A,A*68
02:37:12  $GPRMC,023712.00,A,2309.53036,N,11320.35179,E,4.726,,070617,,,A*76
02:37:12  $GPVTG,,T,,M,4.726,N,8.753,K,A*2D
02:37:12  $GPGGA,023712.00,2309.53036,N,11320.35179,E,1,05,2.69,35.5,M,-5.4,M,,*7D
02:37:12  $GPGSA,A,3,31,03,27,08,11,,,,,,,,3.27,2.69,1.86*0A
02:37:12  $GPGSV,3,1,11,03,09,232,25,04,,,30,08,51,202,41,11,07,195,30*42
02:37:12  $GPGSV,3,2,11,16,,,35,22,,,27,23,,,37,26,,,26*79
02:37:12  $GPGSV,3,3,11,27,81,116,35,31,24,102,25,50,45,122,30*43
02:37:12  $GPGLL,2309.53036,N,11320.35179,E,023712.00,A,A*6F
02:37:13  $GPRMC,023713.00,A,2309.53127,N,11320.35278,E,4.573,,070617,,,A*76
02:37:13  $GPVTG,,T,,M,4.573,N,8.470,K,A*2D
02:37:13  $GPGGA,023713.00,2309.53127,N,11320.35278,E,1,05,2.69,35.0,M,-5.4,M,,*7A
02:37:13  $GPGSA,A,3,31,03,27,08,11,,,,,,,,3.27,2.69,1.86*0A
02:37:13  $GPGSV,3,1,11,03,09,232,25,04,,,30,08,51,202,42,11,07,195,31*40
02:37:13  $GPGSV,3,2,11,16,,,35,22,,,27,23,,,36,26,,,27*79
02:37:13  $GPGSV,3,3,11,27,81,116,32,31,24,102,30,50,45,122,31*41
02:37:13  $GPGLL,2309.53127,N,11320.35278,E,023713.00,A,A*6D
02:37:14  $GPRMC,023714.00,A,2309.53167,N,11320.35458,E,6.232,89.53,070617,,,A*58
02:37:14  $GPVTG,89.53,T,,M,6.232,N,11.542,K,A*3C
02:37:14  $GPGGA,023714.00,2309.53167,N,11320.35458,E,1,05,2.69,34.2,M,-5.4,M,,*7E
02:37:14  $GPGSA,A,3,31,03,27,08,11,,,,,,,,3.27,2.69,1.86*0A
02:37:14  $GPGSV,3,1,12,03,09,232,26,04,,,28,08,51,202,41,09,,,34*7C
02:37:14  $GPGSV,3,2,12,11,07,195,34,16,,,35,22,,,29,23,,,36*48
02:37:14  $GPGSV,3,3,12,26,,,32,27,81,116,32,31,24,102,29,50,45,122,31*4F
02:37:14  $GPGLL,2309.53167,N,11320.35458,E,023714.00,A,A*6A
02:37:15  $GPRMC,023715.00,A,2309.53581,N,11320.35454,E,6.400,72.36,070617,,,A*59
02:37:15  $GPVTG,72.36,T,,M,6.400,N,11.852,K,A*30
02:37:15  $GPGGA,023715.00,2309.53581,N,11320.35454,E,1,05,2.69,27.6,M,-5.4,M,,*79
02:37:15  $GPGSA,A,3,31,03,27,08,11,,,,,,,,3.27,2.69,1.86*0A
02:37:15  $GPGSV,3,1,12,03,09,232,25,04,,,27,08,51,203,42,09,,,34*72
02:37:15  $GPGSV,3,2,12,11,07,195,31,16,,,35,22,,,28,23,,,35*4F
02:37:15  $GPGSV,3,3,12,26,,,31,27,81,116,31,31,24,102,29,50,45,122,32*4C
02:37:15  $GPGLL,2309.53581,N,11320.35454,E,023715.00,A,A*6B
02:37:16  $GPRMC,023716.00,A,2309.53821,N,11320.35515,E,5.964,,070617,,,A*7B
02:37:16  $GPVTG,,T,,M,5.964,N,11.045,K,A*1C
02:37:16  $GPGGA,023716.00,2309.53821,N,11320.35515,E,1,05,2.69,23.0,M,-5.4,M,,*7B
02:37:16  $GPGSA,A,3,31,03,27,08,11,,,,,,,,3.27,2.69,1.86*0A
02:37:16  $GPGSV,3,1,12,03,09,232,24,04,,,28,08,51,203,40,09,,,29*72
02:37:16  $GPGSV,3,2,12,11,07,195,31,16,,,29,22,,,28,23,,,35*42
02:37:16  $GPGSV,3,3,12,26,,,26,27,81,116,28,31,24,102,29,50,45,122,31*41
02:37:16  $GPGLL,2309.53821,N,11320.35515,E,023716.00,A,A*6B
02:37:17  $GPRMC,023717.00,A,2309.53800,N,11320.35768,E,7.379,67.63,070617,,,A*5F
02:37:17  $GPVTG,67.63,T,,M,7.379,N,13.665,K,A*34
02:37:17  $GPGGA,023717.00,2309.53800,N,11320.35768,E,1,05,3.86,21.7,M,-5.4,M,,*74
02:37:17  $GPGSA,A,3,31,03,27,08,11,,,,,,,,5.04,3.86,3.25*06
02:37:17  $GPGSV,3,1,12,03,09,232,26,04,,,29,08,51,203,38,09,,,29*7E
02:37:17  $GPGSV,3,2,12,11,07,195,27,16,,,33,22,,,21,23,,,35*47
02:37:17  $GPGSV,3,3,12,26,,,27,27,81,116,33,31,24,102,24,50,45,122,31*47
02:37:17  $GPGLL,2309.53800,N,11320.35768,E,023717.00,A,A*61
02:37:18  $GPRMC,023718.00,A,2309.53709,N,11320.35768,E,2.918,,070617,,,A*74
02:37:18  $GPVTG,,T,,M,2.918,N,5.403,K,A*23
02:37:18  $GPGGA,023718.00,2309.53709,N,11320.35768,E,1,05,2.69,24.1,M,-5.4,M,,*7E
02:37:18  $GPGSA,A,3,31,03,27,08,11,,,,,,,,3.27,2.69,1.86*0A
02:37:18  $GPGSV,3,1,12,03,09,232,27,04,,,32,08,51,203,38,09,,,28*74
02:37:18  $GPGSV,3,2,12,11,07,195,28,16,,,30,22,,,28,23,,,36*41
02:37:18  $GPGSV,3,3,12,26,,,28,27,81,116,33,31,24,102,25,50,45,122,31*49
02:37:18  $GPGLL,2309.53709,N,11320.35768,E,023718.00,A,A*68
02:37:19  $GPRMC,023719.00,A,2309.53771,N,11320.35800,E,3.343,,070617,,,A*7E
02:37:19  $GPVTG,,T,,M,3.343,N,6.192,K,A*28
02:37:19  $GPGGA,023719.00,2309.53771,N,11320.35800,E,1,05,2.69,23.6,M,-5.4,M,,*71
02:37:19  $GPGSA,A,3,31,03,27,08,11,,,,,,,,3.27,2.69,1.86*0A
02:37:19  $GPGSV,3,1,12,03,09,232,27,04,,,27,08,51,203,39,09,,,28*71
02:37:19  $GPGSV,3,2,12,11,07,195,29,16,,,33,22,,,26,23,,,36*4D
02:37:19  $GPGSV,3,3,12,26,,,27,27,81,116,33,31,24,102,26,50,45,122,31*45
02:37:19  $GPGLL,2309.53771,N,11320.35800,E,023719.00,A,A*67
02:37:20  $GPRMC,023720.00,A,2309.53782,N,11320.35888,E,3.485,,070617,,,A*75
02:37:20  $GPVTG,,T,,M,3.485,N,6.455,K,A*2B
02:37:20  $GPGGA,023720.00,2309.53782,N,11320.35888,E,1,05,2.69,23.7,M,-5.4,M,,*76
02:37:20  $GPGSA,A,3,31,03,27,08,11,,,,,,,,3.27,2.69,1.86*0A
02:37:20  $GPGSV,3,1,12,03,09,232,27,04,,,28,08,51,203,39,09,,,28*7E
02:37:20  $GPGSV,3,2,12,11,07,195,30,16,,,34,22,,,27,23,,,36*43
02:37:20  $GPGSV,3,3,12,26,,,32,27,81,116,32,31,24,102,31,50,45,122,31*46
02:37:20  $GPGLL,2309.53782,N,11320.35888,E,023720.00,A,A*61
02:37:21  $GPRMC,023721.00,A,2309.54027,N,11320.35858,E,4.945,33.05,070617,,,A*5B
02:37:21  $GPVTG,33.05,T,,M,4.945,N,9.158,K,A*01
02:37:21  $GPGGA,023721.00,2309.54027,N,11320.35858,E,1,05,2.69,22.8,M,-5.4,M,,*7B
02:37:21  $GPGSA,A,3,31,03,27,08,11,,,,,,,,3.27,2.69,1.86*0A
02:37:21  $GPGSV,3,1,12,03,09,232,26,04,,,28,08,51,203,42,09,,,28*73
02:37:21  $GPGSV,3,2,12,11,07,195,35,16,,,34,22,,,32,23,,,35*41
02:37:21  $GPGSV,3,3,12,26,,,27,27,81,116,27,31,24,102,35,50,45,122,31*42
02:37:21  $GPGLL,2309.54027,N,11320.35858,E,023721.00,A,A*62
02:37:22  $GPRMC,023722.00,A,2309.54254,N,11320.35894,E,5.724,25.47,070617,,,A*57
02:37:22  $GPVTG,25.47,T,,M,5.724,N,10.600,K,A*3A
02:37:22  $GPGGA,023722.00,2309.54254,N,11320.35894,E,1,05,2.69,19.6,M,-5.4,M,,*78
02:37:22  $GPGSA,A,3,31,03,27,08,11,,,,,,,,3.27,2.69,1.86*0A
02:37:22  $GPGSV,3,1,12,03,09,232,27,04,,,30,08,51,203,41,09,,,28*78
02:37:22  $GPGSV,3,2,12,11,07,195,32,16,,,35,22,,,33,23,,,33*40
02:37:22  $GPGSV,3,3,12,26,,,32,27,81,116,32,31,24,102,32,50,45,122,31*45
02:37:22  $GPGLL,2309.54254,N,11320.35894,E,023722.00,A,A*67
02:37:23  $GPRMC,023723.00,A,2309.54524,N,11320.35838,E,5.859,14.09,070617,,,A*5D
02:37:23  $GPVTG,14.09,T,,M,5.859,N,10.851,K,A*3D
02:37:23  $GPGGA,023723.00,2309.54524,N,11320.35838,E,1,05,2.69,16.3,M,-5.4,M,,*75
02:37:23  $GPGSA,A,3,31,03,27,08,11,,,,,,,,3.27,2.69,1.86*0A
02:37:23  $GPGSV,3,1,12,03,09,232,27,04,,,30,08,51,203,41,09,,,28*78
02:37:23  $GPGSV,3,2,12,11,07,195,35,16,,,37,22,,,34,23,,,36*47
02:37:23  $GPGSV,3,3,12,26,,,32,27,81,116,32,31,24,102,33,50,45,122,32*47
02:37:23  $GPGLL,2309.54524,N,11320.35838,E,023723.00,A,A*60
02:37:24  $GPRMC,023724.00,A,2309.54571,N,11320.35956,E,5.633,14.88,070617,,,A*58
02:37:24  $GPVTG,14.88,T,,M,5.633,N,10.432,K,A*3F
02:37:24  $GPGGA,023724.00,2309.54571,N,11320.35956,E,1,05,2.69,15.2,M,-5.4,M,,*79
02:37:24  $GPGSA,A,3,31,03,27,08,11,,,,,,,,3.27,2.69,1.86*0A
02:37:24  $GPGSV,3,1,12,03,09,232,28,04,,,29,08,51,203,42,09,,,28*7C
02:37:24  $GPGSV,3,2,12,11,07,195,32,16,,,30,22,,,34,23,,,37*46
02:37:24  $GPGSV,3,3,12,26,,,26,27,81,116,31,31,24,102,32,50,45,122,32*40
02:37:24  $GPGLL,2309.54571,N,11320.35956,E,023724.00,A,A*6E
02:37:25  $GPRMC,023725.00,A,2309.54729,N,11320.35915,E,5.409,10.02,070617,,,A*5C
02:37:25  $GPVTG,10.02,T,,M,5.409,N,10.017,K,A*31
02:37:25  $GPGGA,023725.00,2309.54729,N,11320.35915,E,1,05,2.69,13.5,M,-5.4,M,,*71
02:37:25  $GPGSA,A,3,31,03,27,08,11,,,,,,,,3.27,2.69,1.86*0A
02:37:25  $GPGSV,3,1,12,03,09,232,26,04,,,29,08,51,203,42,09,,,28*72
02:37:25  $GPGSV,3,2,12,11,07,195,35,16,,,34,22,,,34,23,,,36*44
02:37:25  $GPGSV,3,3,12,26,,,31,27,81,116,31,31,24,102,35,50,45,122,32*41
02:37:25  $GPGLL,2309.54729,N,11320.35915,E,023725.00,A,A*67
02:37:26  $GPRMC,023726.00,A,2309.54564,N,11320.36078,E,5.306,14.87,070617,,,A*54
02:37:26  $GPVTG,14.87,T,,M,5.306,N,9.826,K,A*02
02:37:26  $GPGGA,023726.00,2309.54564,N,11320.36078,E,1,05,2.69,18.1,M,-5.4,M,,*77
02:37:26  $GPGSA,A,3,31,03,27,08,11,,,,,,,,3.28,2.69,1.86*05
02:37:26  $GPGSV,3,1,12,03,09,232,26,04,,,29,08,51,203,42,09,,,29*73
02:37:26  $GPGSV,3,2,12,11,07,195,32,16,,,30,22,,,34,23,,,36*47
02:37:26  $GPGSV,3,3,12,26,,,26,27,81,116,31,31,24,102,35,50,45,122,32*47
02:37:26  $GPGLL,2309.54564,N,11320.36078,E,023726.00,A,A*6E
02:37:27  $GPRMC,023727.00,A,2309.54301,N,11320.36253,E,3.913,23.01,070617,,,A*59
02:37:27  $GPVTG,23.01,T,,M,3.913,N,7.248,K,A*0C
02:37:27  $GPGGA,023727.00,2309.54301,N,11320.36253,E,1,05,2.69,20.9,M,-5.4,M,,*7B
02:37:27  $GPGSA,A,3,31,03,27,08,11,,,,,,,,3.28,2.69,1.87*04
02:37:27  $GPGSV,3,1,12,03,09,232,25,04,,,28,08,51,203,41,09,,,30*7A
02:37:27  $GPGSV,3,2,12,11,07,195,33,16,,,33,22,,,30,23,,,36*41
02:37:27  $GPGSV,3,3,12,26,,,23,27,81,116,31,31,24,102,35,50,45,122,31*41
02:37:27  $GPGLL,2309.54301,N,11320.36253,E,023727.00,A,A*61
02:37:28  $GPRMC,023728.00,A,2309.54166,N,11320.36365,E,2.853,,070617,,,A*7B
02:37:28  $GPVTG,,T,,M,2.853,N,5.284,K,A*24
02:37:28  $GPGGA,023728.00,2309.54166,N,11320.36365,E,1,05,2.69,20.8,M,-5.4,M,,*72
02:37:28  $GPGSA,A,3,31,03,27,08,11,,,,,,,,3.28,2.69,1.87*04
02:37:28  $GPGSV,3,1,12,03,09,232,24,04,,,27,08,51,203,39,09,,,30*7B
02:37:28  $GPGSV,3,2,12,11,07,195,33,16,,,33,22,,,31,23,,,36*40
02:37:28  $GPGSV,3,3,12,26,,,19,27,81,116,31,31,24,102,31,50,45,122,31*4C
02:37:28  $GPGLL,2309.54166,N,11320.36365,E,023728.00,A,A*69
02:37:29  $GPRMC,023729.00,A,2309.54064,N,11320.36399,E,1.809,,070617,,,A*76
02:37:29  $GPVTG,,T,,M,1.809,N,3.349,K,A*2E
02:37:29  $GPGGA,023729.00,2309.54064,N,11320.36399,E,1,05,2.69,22.8,M,-5.4,M,,*71
02:37:29  $GPGSA,A,3,31,03,27,08,11,,,,,,,,3.28,2.69,1.87*04
02:37:29  $GPGSV,3,1,11,03,09,232,25,04,,,27,08,51,203,39,09,,,30*79
02:37:29  $GPGSV,3,2,11,11,07,195,32,16,,,19,22,,,32,23,,,38*47
02:37:29  $GPGSV,3,3,11,26,,,13,27,81,116,31,31,24,102,32*71
02:37:29  $GPGLL,2309.54064,N,11320.36399,E,023729.00,A,A*68
02:37:30  $GPRMC,023730.00,A,2309.53974,N,11320.36483,E,2.004,,070617,,,A*7B
02:37:30  $GPVTG,,T,,M,2.004,N,3.711,K,A*21
02:37:30  $GPGGA,023730.00,2309.53974,N,11320.36483,E,1,05,2.69,24.4,M,-5.4,M,,*70
02:37:30  $GPGSA,A,3,31,03,27,08,11,,,,,,,,3.28,2.69,1.87*04
02:37:30  $GPGSV,3,1,11,03,09,232,31,04,,,32,08,51,203,40,09,,,23*74
02:37:30  $GPGSV,3,2,11,11,07,195,28,16,,,19,22,,,32,23,,,33*47
02:37:30  $GPGSV,3,3,11,26,,,10,27,81,116,32,31,24,102,35*76
02:37:30  $GPGLL,2309.53974,N,11320.36483,E,023730.00,A,A*63
02:37:31  $GPRMC,023731.00,A,2309.54025,N,11320.36547,E,2.588,,070617,,,A*78
02:37:31  $GPVTG,,T,,M,2.588,N,4.793,K,A*2D
02:37:31  $GPGGA,023731.00,2309.54025,N,11320.36547,E,1,05,2.69,24.7,M,-5.4,M,,*71
02:37:31  $GPGSA,A,3,31,03,27,08,11,,,,,,,,3.28,2.69,1.87*04
02:37:31  $GPGSV,3,1,10,03,09,232,24,04,,,28,08,51,203,40,09,,,22*7B
02:37:31  $GPGSV,3,2,10,11,07,195,33,22,,,26,23,,,36,26,,,09*4E
02:37:31  $GPGSV,3,3,10,27,81,116,31,31,24,102,24*71
02:37:31  $GPGLL,2309.54025,N,11320.36547,E,023731.00,A,A*61
02:37:32  $GPRMC,023732.00,A,2309.54211,N,11320.36603,E,4.061,29.73,070617,,,A*58
02:37:32  $GPVTG,29.73,T,,M,4.061,N,7.522,K,A*03
02:37:32  $GPGGA,023732.00,2309.54211,N,11320.36603,E,1,05,2.69,24.3,M,-5.4,M,,*70
02:37:32  $GPGSA,A,3,31,03,27,08,11,,,,,,,,3.28,2.69,1.87*04
02:37:32  $GPGSV,3,1,10,03,09,232,24,04,,,33,08,51,203,36,09,,,19*78
02:37:32  $GPGSV,3,2,10,11,07,195,28,22,,,28,23,,,36,26,,,09*4A
02:37:32  $GPGSV,3,3,10,27,81,116,30,31,24,102,24*70
02:37:32  $GPGLL,2309.54211,N,11320.36603,E,023732.00,A,A*64
02:37:33  $GPRMC,023733.00,A,2309.54190,N,11320.36746,E,4.099,37.87,070617,,,A*50
02:37:33  $GPVTG,37.87,T,,M,4.099,N,7.592,K,A*0B
02:37:33  $GPGGA,023733.00,2309.54190,N,11320.36746,E,1,05,2.69,24.4,M,-5.4,M,,*7C
02:37:33  $GPGSA,A,3,31,03,27,08,11,,,,,,,,3.28,2.69,1.87*04
02:37:33  $GPGSV,3,1,10,03,09,232,25,04,,,33,08,51,203,43,09,,,16*74
02:37:33  $GPGSV,3,2,10,11,07,195,28,22,,,28,23,,,34,26,,,10*40
02:37:33  $GPGSV,3,3,10,27,81,116,30,31,24,102,26*72
02:37:33  $GPGLL,2309.54190,N,11320.36746,E,023733.00,A,A*6F
02:37:34  $GPRMC,023734.00,A,2309.54167,N,11320.36668,E,2.166,,070617,,,A*70
02:37:34  $GPVTG,,T,,M,2.166,N,4.011,K,A*24
02:37:34  $GPGGA,023734.00,2309.54167,N,11320.36668,E,1,05,2.69,25.6,M,-5.4,M,,*7D
02:37:34  $GPGSA,A,3,31,03,27,08,11,,,,,,,,3.28,2.69,1.87*04
02:37:34  $GPGSV,3,1,10,03,09,232,24,04,,,28,08,51,203,44,09,,,15*7B
02:37:34  $GPGSV,3,2,10,11,07,195,28,22,,,28,23,,,35,26,,,12*43
02:37:34  $GPGSV,3,3,10,27,81,113,33,31,24,102,26*74
02:37:34  $GPGLL,2309.54167,N,11320.36668,E,023734.00,A,A*6D
02:37:35  $GPRMC,023735.00,A,2309.54127,N,11320.36738,E,2.134,,070617,,,A*76
02:37:35  $GPVTG,,T,,M,2.134,N,3.952,K,A*2A
02:37:35  $GPGGA,023735.00,2309.54127,N,11320.36738,E,1,05,2.69,26.4,M,-5.4,M,,*7D
02:37:35  $GPGSA,A,3,31,03,27,08,11,,,,,,,,3.28,2.69,1.87*04
02:37:35  $GPGSV,3,1,10,03,09,232,31,04,,,33,08,51,203,43,09,,,13*74
02:37:35  $GPGSV,3,2,10,11,07,195,27,22,,,26,23,,,35,26,,,21*42
02:37:35  $GPGSV,3,3,10,27,81,113,29,31,24,102,26*7F
02:37:35  $GPGLL,2309.54127,N,11320.36738,E,023735.00,A,A*6C
02:37:36  $GPRMC,023736.00,A,2309.53834,N,11320.36938,E,2.223,,070617,,,A*72
02:37:36  $GPVTG,,T,,M,2.223,N,4.118,K,A*2E
02:37:36  $GPGGA,023736.00,2309.53834,N,11320.36938,E,1,05,2.69,30.3,M,-5.4,M,,*7C
02:37:36  $GPGSA,A,3,31,03,27,08,11,,,,,,,,3.28,2.69,1.87*04
02:37:36  $GPGSV,3,1,10,03,09,232,25,04,,,29,08,51,203,40,09,,,11*7B
02:37:36  $GPGSV,3,2,10,11,07,195,32,22,,,32,23,,,37,26,,,31*40
02:37:36  $GPGSV,3,3,10,27,81,113,33,31,24,102,35*76
02:37:36  $GPGLL,2309.53834,N,11320.36938,E,023736.00,A,A*6D
02:37:37  $GPRMC,023737.00,A,2309.53796,N,11320.37061,E,2.838,,070617,,,A*70
02:37:37  $GPVTG,,T,,M,2.838,N,5.256,K,A*26
02:37:37  $GPGGA,023737.00,2309.53796,N,11320.37061,E,1,05,2.69,29.9,M,-5.4,M,,*7C
02:37:37  $GPGSA,A,3,31,03,27,08,11,,,,,,,,3.28,2.69,1.87*04
02:37:37  $GPGSV,3,1,10,03,09,232,24,04,,,29,08,51,203,42,09,,,12*7B
02:37:37  $GPGSV,3,2,10,11,07,195,32,22,,,32,23,,,37,26,,,35*44
02:37:37  $GPGSV,3,3,10,27,81,113,33,31,24,102,31*72
02:37:37  $GPGLL,2309.53796,N,11320.37061,E,023737.00,A,A*6F
02:37:38  $GPRMC,023738.00,A,2309.53813,N,11320.37158,E,3.358,,070617,,,A*7A
02:37:38  $GPVTG,,T,,M,3.358,N,6.219,K,A*22
02:37:38  $GPGGA,023738.00,2309.53813,N,11320.37158,E,1,05,2.69,30.1,M,-5.4,M,,*7A
02:37:38  $GPGSA,A,3,31,03,27,08,11,,,,,,,,3.28,2.69,1.87*04
02:37:38  $GPGSV,3,1,10,03,09,232,24,04,,,29,08,51,203,42,09,,,15*7C
02:37:38  $GPGSV,3,2,10,11,07,195,32,22,,,32,23,,,38,26,,,35*4B
02:37:38  $GPGSV,3,3,10,27,81,113,34,31,23,103,34*76
02:37:38  $GPGLL,2309.53813,N,11320.37158,E,023738.00,A,A*69
02:37:39  $GPRMC,023739.00,A,2309.53758,N,11320.37252,E,2.932,,070617,,,A*75
02:37:39  $GPVTG,,T,,M,2.932,N,5.430,K,A*2B
02:37:39  $GPGGA,023739.00,2309.53758,N,11320.37252,E,1,05,2.69,31.7,M,-5.4,M,,*75
02:37:39  $GPGSA,A,3,31,03,27,08,11,,,,,,,,3.28,2.69,1.87*04
02:37:39  $GPGSV,3,1,11,03,09,232,30,04,,,36,08,51,203,43,09,,,18*7A
02:37:39  $GPGSV,3,2,11,11,07,195,27,16,,,37,22,,,35,23,,,33*43
02:37:39  $GPGSV,3,3,11,26,,,34,27,81,113,34,31,23,103,31*71
02:37:39  $GPGLL,2309.53758,N,11320.37252,E,023739.00,A,A*61
02:37:40  $GPRMC,023740.00,A,2309.53792,N,11320.37248,E,1.996,,070617,,,A*7B
02:37:40  $GPVTG,,T,,M,1.996,N,3.697,K,A*2F
02:37:40  $GPGGA,023740.00,2309.53792,N,11320.37248,E,1,05,2.69,31.4,M,-5.4,M,,*75
02:37:40  $GPGSA,A,3,31,03,27,08,11,,,,,,,,3.28,2.69,1.87*04
02:37:40  $GPGSV,3,1,11,03,09,232,31,04,,,34,08,51,203,44,09,,,22*77
02:37:40  $GPGSV,3,2,11,11,07,195,25,16,,,39,22,,,33,23,,,37*4D
02:37:40  $GPGSV,3,3,11,26,,,35,27,81,113,36,31,23,103,31*72
02:37:40  $GPGLL,2309.53792,N,11320.37248,E,023740.00,A,A*62
02:37:41  $GPRMC,023741.00,A,2309.53509,N,11320.37411,E,1.332,,070617,,,A*74
02:37:41  $GPVTG,,T,,M,1.332,N,2.468,K,A*28
02:37:41  $GPGGA,023741.00,2309.53509,N,11320.37411,E,1,05,2.69,32.5,M,-5.4,M,,*7C
02:37:41  $GPGSA,A,3,31,03,27,08,11,,,,,,,,3.28,2.69,1.87*04
02:37:41  $GPGSV,3,1,11,03,09,232,35,04,,,33,08,51,203,46,09,,,24*70
02:37:41  $GPGSV,3,2,11,11,07,195,22,16,,,40,22,,,33,23,,,34*47
02:37:41  $GPGSV,3,3,11,26,,,39,27,81,113,35,31,23,103,32*7E
02:37:41  $GPGLL,2309.53509,N,11320.37411,E,023741.00,A,A*69
02:37:42  $GPRMC,023742.00,A,2309.53231,N,11320.37544,E,1.411,,070617,,,A*7C
02:37:42  $GPVTG,,T,,M,1.411,N,2.614,K,A*27
02:37:42  $GPGGA,023742.00,2309.53231,N,11320.37544,E,1,05,2.69,35.9,M,-5.4,M,,*79
02:37:42  $GPGSA,A,3,31,03,27,08,11,,,,,,,,3.28,2.69,1.87*04
02:37:42  $GPGSV,3,1,10,03,09,232,37,08,51,203,42,09,,,32,11,07,195,19*46
02:37:42  $GPGSV,3,2,10,16,,,40,22,,,26,23,,,30,26,,,34*7F
02:37:42  $GPGSV,3,3,10,27,81,113,35,31,23,103,26*74
02:37:42  $GPGLL,2309.53231,N,11320.37544,E,023742.00,A,A*67
02:37:43  $GPRMC,023743.00,A,2309.53207,N,11320.37651,E,2.645,,070617,,,A*7F
02:37:43  $GPVTG,,T,,M,2.645,N,4.898,K,A*2B
02:37:43  $GPGGA,023743.00,2309.53207,N,11320.37651,E,1,05,2.69,34.1,M,-5.4,M,,*73
02:37:43  $GPGSA,A,3,31,03,27,08,11,,,,,,,,3.28,2.69,1.87*04
02:37:43  $GPGSV,3,1,11,03,09,232,24,04,,,37,08,51,203,41,09,,,26*71
02:37:43  $GPGSV,3,2,11,11,07,195,18,16,,,40,22,,,23,23,,,27*4D
02:37:43  $GPGSV,3,3,11,26,,,28,27,81,113,37,31,23,103,31*7F
02:37:43  $GPGLL,2309.53207,N,11320.37651,E,023743.00,A,A*64
02:37:44  $GPRMC,023744.00,A,2309.53053,N,11320.37691,E,2.522,,070617,,,A*75
02:37:44  $GPVTG,,T,,M,2.522,N,4.671,K,A*20
02:37:44  $GPGGA,023744.00,2309.53053,N,11320.37691,E,1,05,2.69,35.0,M,-5.4,M,,*7B
02:37:44  $GPGSA,A,3,31,03,27,08,11,,,,,,,,3.28,2.69,1.87*04
02:37:44  $GPGSV,3,1,11,03,09,232,23,04,,,36,08,51,203,36,09,,,37*77
02:37:44  $GPGSV,3,2,11,11,07,195,21,16,,,38,22,,,20,23,,,41*4B
02:37:44  $GPGSV,3,3,11,26,,,32,27,81,113,39,31,23,103,39*72
02:37:44  $GPGLL,2309.53053,N,11320.37691,E,023744.00,A,A*6C
02:37:45  $GPRMC,023745.00,A,2309.52827,N,11320.37704,E,2.843,116.18,070617,,,A*68
02:37:45  $GPVTG,116.18,T,,M,2.843,N,5.265,K,A*3B
02:37:45  $GPGGA,023745.00,2309.52827,N,11320.37704,E,1,04,4.01,36.1,M,-5.4,M,,*76
02:37:45  $GPGSA,A,3,31,03,27,08,,,,,,,,,4.43,4.01,1.89*08
02:37:45  $GPGSV,3,1,11,03,09,232,29,04,,,37,08,51,203,38,09,,,35*70
02:37:45  $GPGSV,3,2,11,11,07,195,,16,,,37,22,,,29,23,,,42*4D
02:37:45  $GPGSV,3,3,11,26,,,35,27,81,113,37,31,23,103,37*75
02:37:45  $GPGLL,2309.52827,N,11320.37704,E,023745.00,A,A*6A
02:37:46  $GPRMC,023746.00,A,2309.52720,N,11320.37748,E,2.937,140.05,070617,,,A*66
02:37:46  $GPVTG,140.05,T,,M,2.937,N,5.440,K,A*37
02:37:46  $GPGGA,023746.00,2309.52720,N,11320.37748,E,1,05,4.00,36.3,M,-5.4,M,,*77
02:37:46  $GPGSA,A,3,31,03,27,08,11,,,,,,,,4.43,4.00,1.89*09
02:37:46  $GPGSV,3,1,11,03,09,232,21,04,,,38,08,51,203,33,09,,,37*7E
02:37:46  $GPGSV,3,2,11,11,07,195,24,16,,,36,22,,,28,23,,,40*49
02:37:46  $GPGSV,3,3,11,26,,,32,27,81,113,34,31,23,103,37*71
02:37:46  $GPGLL,2309.52720,N,11320.37748,E,023746.00,A,A*69
02:37:47  $GPRMC,023747.00,A,2309.52688,N,11320.37764,E,2.381,149.36,070617,,,A*64
02:37:47  $GPVTG,149.36,T,,M,2.381,N,4.409,K,A*35
02:37:47  $GPGGA,023747.00,2309.52688,N,11320.37764,E,1,05,2.69,36.7,M,-5.4,M,,*76
02:37:47  $GPGSA,A,3,31,03,27,08,11,,,,,,,,3.28,2.69,1.87*04
02:37:47  $GPGSV,3,1,11,03,09,232,20,04,,,38,08,51,203,33,09,,,35*7D
02:37:47  $GPGSV,3,2,11,11,07,195,27,16,,,39,22,,,28,23,,,39*4B
02:37:47  $GPGSV,3,3,11,26,,,32,27,81,113,37,31,23,103,38*7D
02:37:47  $GPGLL,2309.52688,N,11320.37764,E,023747.00,A,A*65
02:37:48  $GPRMC,023748.00,A,2309.52573,N,11320.37808,E,2.685,157.70,070617,,,A*65
02:37:48  $GPVTG,157.70,T,,M,2.685,N,4.973,K,A*39
02:37:48  $GPGGA,023748.00,2309.52573,N,11320.37808,E,1,05,2.69,37.2,M,-5.4,M,,*7F
02:37:48  $GPGSA,A,3,31,03,27,08,11,,,,,,,,3.28,2.69,1.87*04
02:37:48  $GPGSV,3,1,11,03,09,232,23,04,,,36,08,51,203,34,09,,,33*71
02:37:48  $GPGSV,3,2,11,11,07,195,27,16,,,31,22,,,29,23,,,39*42
02:37:48  $GPGSV,3,3,11,26,,,32,27,81,113,37,31,23,103,38*7D
02:37:48  $GPGLL,2309.52573,N,11320.37808,E,023748.00,A,A*68
02:37:49  $GPRMC,023749.00,A,2309.52434,N,11320.37837,E,2.926,162.87,070617,,,A*62
02:37:49  $GPVTG,162.87,T,,M,2.926,N,5.419,K,A*31
02:37:49  $GPGGA,023749.00,2309.52434,N,11320.37837,E,1,05,2.70,37.7,M,-5.4,M,,*7D
02:37:49  $GPGSA,A,3,31,03,27,08,11,,,,,,,,3.28,2.70,1.87*0C
02:37:49  $GPGSV,3,1,11,03,09,232,24,04,,,38,08,51,203,39,09,,,36*70
02:37:49  $GPGSV,3,2,11,11,07,195,27,16,,,36,22,,,30,23,,,39*4D
02:37:49  $GPGSV,3,3,11,26,,,33,27,81,113,38,31,23,103,40*7C
02:37:49  $GPGLL,2309.52434,N,11320.37837,E,023749.00,A,A*67
02:37:50  $GPRMC,023750.00,A,2309.52421,N,11320.37848,E,1.827,,070617,,,A*71
02:37:50  $GPVTG,,T,,M,1.827,N,3.384,K,A*23
02:37:50  $GPGGA,023750.00,2309.52421,N,11320.37848,E,1,05,2.70,38.9,M,-5.4,M,,*78
02:37:50  $GPGSA,A,3,31,03,27,08,11,,,,,,,,3.28,2.70,1.87*0C
02:37:50  $GPGSV,3,1,11,03,09,232,24,04,,,33,08,51,203,37,09,,,33*70
02:37:50  $GPGSV,3,2,11,11,07,195,24,16,,,35,22,,,29,23,,,40*4B
02:37:50  $GPGSV,3,3,11,26,,,33,27,81,113,36,31,23,103,38*7D
02:37:50  $GPGLL,2309.52421,N,11320.37848,E,023750.00,A,A*63
02:37:51  $GPRMC,023751.00,A,2309.52265,N,11320.37884,E,2.146,164.08,070617,,,A*6E
02:37:51  $GPVTG,164.08,T,,M,2.146,N,3.975,K,A*3F
02:37:51  $GPGGA,023751.00,2309.52265,N,11320.37884,E,1,05,2.70,39.9,M,-5.4,M,,*7E
02:37:51  $GPGSA,A,3,31,03,27,08,11,,,,,,,,3.28,2.70,1.87*0C
02:37:51  $GPGSV,3,1,11,03,09,232,31,04,,,36,08,51,203,37,09,,,29*7A
02:37:51  $GPGSV,3,2,11,11,07,195,24,16,,,38,22,,,29,23,,,42*44
02:37:51  $GPGSV,3,3,11,26,,,36,27,81,113,39,31,23,103,40*78
02:37:51  $GPGLL,2309.52265,N,11320.37884,E,023751.00,A,A*64
02:37:52  $GPRMC,023752.00,A,2309.52090,N,11320.37920,E,2.725,168.80,070617,,,A*65
02:37:52  $GPVTG,168.80,T,,M,2.725,N,5.046,K,A*3F
02:37:52  $GPGGA,023752.00,2309.52090,N,11320.37920,E,1,05,2.70,40.7,M,-5.4,M,,*7A
02:37:52  $GPGSA,A,3,31,03,27,08,11,,,,,,,,3.28,2.70,1.87*0C
02:37:52  $GPGSV,3,1,11,03,09,232,31,04,,,39,08,51,203,34,09,,,28*77
02:37:52  $GPGSV,3,2,11,11,07,195,23,16,,,37,22,,,27,23,,,42*42
02:37:52  $GPGSV,3,3,11,26,,,33,27,81,113,39,31,23,103,37*7D
02:37:52  $GPGLL,2309.52090,N,11320.37920,E,023752.00,A,A*60
02:37:53  $GPRMC,023753.00,A,2309.51965,N,11320.37942,E,2.697,170.76,070617,,,A*68
02:37:53  $GPVTG,170.76,T,,M,2.697,N,4.995,K,A*31
02:37:53  $GPGGA,023753.00,2309.51965,N,11320.37942,E,1,05,2.70,41.1,M,-5.4,M,,*78
02:37:53  $GPGSA,A,3,31,03,27,08,11,,,,,,,,3.28,2.70,1.87*0C
02:37:53  $GPGSV,3,1,11,03,09,232,32,04,,,39,08,51,203,36,09,,,29*77
02:37:53  $GPGSV,3,2,11,11,07,195,21,16,,,37,22,,,25,23,,,41*41
02:37:53  $GPGSV,3,3,11,26,,,35,27,81,113,36,31,23,103,38*7B
02:37:53  $GPGLL,2309.51965,N,11320.37942,E,023753.00,A,A*65
02:37:54  $GPRMC,023754.00,A,2309.51839,N,11320.37962,E,2.651,171.89,070617,,,A*6E
02:37:54  $GPVTG,171.89,T,,M,2.651,N,4.909,K,A*3F
02:37:54  $GPGGA,023754.00,2309.51839,N,11320.37962,E,1,05,2.70,41.9,M,-5.4,M,,*7D
02:37:54  $GPGSA,A,3,31,03,27,08,11,,,,,,,,3.28,2.70,1.87*0C
02:37:54  $GPGSV,3,1,11,03,09,232,31,04,,,36,08,51,203,36,09,,,23*71
02:37:54  $GPGSV,3,2,11,11,07,195,18,16,,,37,22,,,26,23,,,41*48
02:37:54  $GPGSV,3,3,11,26,,,35,27,81,113,35,31,23,103,38*78
02:37:54  $GPGLL,2309.51839,N,11320.37962,E,023754.00,A,A*68
02:37:55  $GPRMC,023755.00,A,2309.51749,N,11320.38050,E,2.479,159.91,070617,,,A*6B
02:37:55  $GPVTG,159.91,T,,M,2.479,N,4.591,K,A*39
02:37:55  $GPGGA,023755.00,2309.51749,N,11320.38050,E,1,04,4.00,43.0,M,-5.4,M,,*78
02:37:55  $GPGSA,A,3,31,03,27,08,,,,,,,,,4.43,4.00,1.89*09
02:37:55  $GPGSV,3,1,12,03,09,232,25,04,,,33,08,51,203,36,09,,,30*70
02:37:55  $GPGSV,3,2,12,11,07,195,,16,,,38,21,,,38,22,,,26*41
02:37:55  $GPGSV,3,3,12,23,,,42,26,,,35,27,81,113,37,31,23,103,37*71
02:37:55  $GPGLL,2309.51749,N,11320.38050,E,023755.00,A,A*66
02:37:56  $GPRMC,023756.00,A,2309.51624,N,11320.38081,E,2.500,157.76,070617,,,A*66
02:37:56  $GPVTG,157.76,T,,M,2.500,N,4.629,K,A*31
02:37:56  $GPGGA,023756.00,2309.51624,N,11320.38081,E,1,05,4.00,43.5,M,-5.4,M,,*79
02:37:56  $GPGSA,A,3,31,03,27,08,11,,,,,,,,4.43,4.00,1.89*09
02:37:56  $GPGSV,3,1,12,03,09,232,26,04,,,36,08,51,203,33,09,,,30*73
02:37:56  $GPGSV,3,2,12,11,07,195,24,16,,,38,21,,,26,22,,,28*46
02:37:56  $GPGSV,3,3,12,23,,,43,26,,,35,27,81,113,37,31,23,103,39*7E
02:37:56  $GPGLL,2309.51624,N,11320.38081,E,023756.00,A,A*63
02:37:57  $GPRMC,023757.00,A,2309.51484,N,11320.38090,E,2.722,164.80,070617,,,A*64
02:37:57  $GPVTG,164.80,T,,M,2.722,N,5.041,K,A*33
02:37:57  $GPGGA,023757.00,2309.51484,N,11320.38090,E,1,05,4.00,44.0,M,-5.4,M,,*72
02:37:57  $GPGSA,A,3,31,03,27,08,11,,,,,,,,4.43,4.00,1.89*09
02:37:57  $GPGSV,3,1,12,03,09,232,25,04,,,29,08,51,203,37,09,,,30*7A
02:37:57  $GPGSV,3,2,12,11,07,195,22,16,,,35,21,,,28,22,,,27*4C
02:37:57  $GPGSV,3,3,12,23,,,41,26,,,31,27,81,113,35,31,23,103,38*7B
02:37:57  $GPGLL,2309.51484,N,11320.38090,E,023757.00,A,A*6A
02:37:58  $GPRMC,023758.00,A,2309.51306,N,11320.38161,E,3.045,163.05,070617,,,A*64
02:37:58  $GPVTG,163.05,T,,M,3.045,N,5.640,K,A*39
02:37:58  $GPGGA,023758.00,2309.51306,N,11320.38161,E,1,05,2.70,45.1,M,-5.4,M,,*7E
02:37:58  $GPGSA,A,3,31,03,27,08,11,,,,,,,,3.28,2.70,1.87*0C
02:37:58  $GPGSV,3,1,12,03,09,232,23,04,,,30,08,51,203,37,09,,,23*76
02:37:58  $GPGSV,3,2,12,11,07,195,22,16,,,36,21,,,28,22,,,25*4D
02:37:58  $GPGSV,3,3,12,23,,,37,26,,,31,27,81,113,35,31,23,103,38*7A
02:37:58  $GPGLL,2309.51306,N,11320.38161,E,023758.00,A,A*67
02:37:59  $GPRMC,023759.00,A,2309.51204,N,11320.38185,E,2.875,162.87,070617,,,A*6D
02:37:59  $GPVTG,162.87,T,,M,2.875,N,5.325,K,A*3E
02:37:59  $GPGGA,023759.00,2309.51204,N,11320.38185,E,1,05,2.70,45.8,M,-5.4,M,,*7F
02:37:59  $GPGSA,A,3,31,03,27,08,11,,,,,,,,3.28,2.70,1.87*0C
02:37:59  $GPGSV,3,1,12,03,09,232,20,04,,,33,08,51,203,35,09,,,31*77
02:37:59  $GPGSV,3,2,12,11,07,195,23,16,,,37,21,,,28,22,,,25*4D
02:37:59  $GPGSV,3,3,12,23,,,42,26,,,31,27,81,113,37,31,23,103,37*75
02:37:59  $GPGLL,2309.51204,N,11320.38185,E,023759.00,A,A*6F
02:38:00  $GPRMC,023800.00,A,2309.50929,N,11320.38167,E,4.731,177.53,070617,,,A*63
02:38:00  $GPVTG,177.53,T,,M,4.731,N,8.762,K,A*30
02:38:00  $GPGGA,023800.00,2309.50929,N,11320.38167,E,1,05,2.70,46.0,M,-5.4,M,,*7E
02:38:00  $GPGSA,A,3,31,03,27,08,11,,,,,,,,3.28,2.70,1.87*0C
02:38:00  $GPGSV,3,1,12,03,09,232,35,04,,,38,08,51,203,40,09,,,34*7F
02:38:00  $GPGSV,3,2,12,11,07,195,22,16,,,30,21,,,26,22,,,26*46
02:38:00  $GPGSV,3,3,12,23,,,43,26,,,30,27,81,113,37,31,23,103,26*75
02:38:00  $GPGLL,2309.50929,N,11320.38167,E,023800.00,A,A*65
02:38:01  $GPRMC,023801.00,A,2309.51035,N,11320.38065,E,3.022,,070617,,,A*7F
02:38:01  $GPVTG,,T,,M,3.022,N,5.598,K,A*21
02:38:01  $GPGGA,023801.00,2309.51035,N,11320.38065,E,1,05,2.70,45.3,M,-5.4,M,,*79
02:38:01  $GPGSA,A,3,31,03,27,08,11,,,,,,,,3.28,2.70,1.87*0C
02:38:01  $GPGSV,3,1,12,03,09,232,27,04,,,36,08,51,203,37,09,,,31*77
02:38:01  $GPGSV,3,2,12,11,07,195,25,16,,,24,21,,,23,22,,,27*40
02:38:01  $GPGSV,3,3,12,23,,,37,26,,,24,27,81,113,38,31,23,103,26*7C
02:38:01  $GPGLL,2309.51035,N,11320.38065,E,023801.00,A,A*62
02:38:02  $GPRMC,023802.00,A,2309.51059,N,11320.37983,E,2.501,,070617,,,A*7D
02:38:02  $GPVTG,,T,,M,2.501,N,4.631,K,A*25
02:38:02  $GPGGA,023802.00,2309.51059,N,11320.37983,E,1,05,2.70,45.0,M,-5.4,M,,*7D
02:38:02  $GPGSA,A,3,31,03,27,08,11,,,,,,,,3.28,2.70,1.88*03
02:38:02  $GPGSV,3,1,12,03,09,232,33,04,,,26,08,51,203,33,09,,,38*7E
02:38:02  $GPGSV,3,2,12,11,07,195,25,16,,,34,21,,,31,22,,,27*42
02:38:02  $GPGSV,3,3,12,23,,,43,26,,,26,27,81,113,36,31,23,103,24*71
02:38:02  $GPGLL,2309.51059,N,11320.37983,E,023802.00,A,A*65
02:38:03  $GPRMC,023803.00,A,2309.51146,N,11320.37916,E,1.570,,070617,,,A*7A
02:38:03  $GPVTG,,T,,M,1.570,N,2.908,K,A*23
02:38:03  $GPGGA,023803.00,2309.51146,N,11320.37916,E,1,05,2.70,44.8,M,-5.4,M,,*76
02:38:03  $GPGSA,A,3,31,03,27,08,11,,,,,,,,3.28,2.70,1.88*03
02:38:03  $GPGSV,3,1,12,03,09,232,36,04,,,26,08,51,203,42,09,,,35*70
02:38:03  $GPGSV,3,2,12,11,07,195,25,16,,,35,21,,,24,22,,,27*47
02:38:03  $GPGSV,3,3,12,23,,,42,26,,,35,27,81,113,41,31,23,103,20*76
02:38:03  $GPGLL,2309.51146,N,11320.37916,E,023803.00,A,A*67
02:38:04  $GPRMC,023804.00,A,2309.50898,N,11320.37972,E,2.229,,070617,,,A*7C
02:38:04  $GPVTG,,T,,M,2.229,N,4.128,K,A*27
02:38:04  $GPGGA,023804.00,2309.50898,N,11320.37972,E,1,04,3.84,45.7,M,-5.4,M,,*7D
02:38:04  $GPGSA,A,3,03,27,08,11,,,,,,,,,5.03,3.84,3.24*00
02:38:04  $GPGSV,3,1,11,03,09,232,36,08,51,203,36,09,,,32,11,07,195,25*4A
02:38:04  $GPGSV,3,2,11,16,,,35,21,,,21,22,,,32,23,,,34*7E
02:38:04  $GPGSV,3,3,11,26,,,24,27,81,113,39,31,23,103,*7F
02:38:04  $GPGLL,2309.50898,N,11320.37972,E,023804.00,A,A*69
02:38:05  $GPRMC,023805.00,A,2309.50934,N,11320.38024,E,0.848,,070617,,,A*70
02:38:05  $GPVTG,,T,,M,0.848,N,1.571,K,A*25
02:38:05  $GPGGA,023805.00,2309.50934,N,11320.38024,E,1,04,3.84,45.7,M,-5.4,M,,*7E
02:38:05  $GPGSA,A,3,03,27,08,11,,,,,,,,,5.03,3.84,3.24*00
02:38:05  $GPGSV,3,1,11,03,09,232,33,08,51,203,39,09,,,37,11,07,195,26*46
02:38:05  $GPGSV,3,2,11,16,,,33,21,,,22,22,,,26,23,,,42*7F
02:38:05  $GPGSV,3,3,11,26,,,21,27,81,113,38,31,23,103,*7B
02:38:05  $GPGLL,2309.50934,N,11320.38024,E,023805.00,A,A*6A
02:38:06  $GPRMC,023806.00,A,2309.50784,N,11320.38048,E,1.554,,070617,,,A*7D
02:38:06  $GPVTG,,T,,M,1.554,N,2.879,K,A*22
02:38:06  $GPGGA,023806.00,2309.50784,N,11320.38048,E,1,04,3.84,46.0,M,-5.4,M,,*76
02:38:06  $GPGSA,A,3,03,27,08,11,,,,,,,,,5.03,3.84,3.24*00
02:38:06  $GPGSV,3,1,11,03,09,232,36,08,51,203,39,09,,,33,11,07,195,26*47
02:38:06  $GPGSV,3,2,11,16,,,36,21,,,18,22,,,34,23,,,43*71
02:38:06  $GPGSV,3,3,11,26,,,16,27,81,113,40,31,23,103,*70
02:38:06  $GPGLL,2309.50784,N,11320.38048,E,023806.00,A,A*66
02:38:07  $GPRMC,023807.00,A,2309.50728,N,11320.37932,E,2.051,,070617,,,A*72
02:38:07  $GPVTG,,T,,M,2.051,N,3.799,K,A*21
02:38:07  $GPGGA,023807.00,2309.50728,N,11320.37932,E,1,04,3.84,45.9,M,-5.4,M,,*70
02:38:07  $GPGSA,A,3,03,27,08,11,,,,,,,,,5.03,3.84,3.24*00
02:38:07  $GPGSV,3,1,11,03,09,232,33,08,51,203,39,09,,,38,11,07,195,26*49
02:38:07  $GPGSV,3,2,11,16,,,33,21,,,17,22,,,23,23,,,41*7F
02:38:07  $GPGSV,3,3,11,26,,,16,27,81,113,40,31,23,103,*70
02:38:07  $GPGLL,2309.50728,N,11320.37932,E,023807.00,A,A*6A
02:38:08  $GPRMC,023808.00,A,2309.50554,N,11320.37958,E,2.480,,070617,,,A*70
02:38:08  $GPVTG,,T,,M,2.480,N,4.592,K,A*27
02:38:08  $GPGGA,023808.00,2309.50554,N,11320.37958,E,1,04,3.84,46.2,M,-5.4,M,,*72
02:38:08  $GPGSA,A,3,03,27,08,11,,,,,,,,,5.03,3.84,3.24*00
02:38:08  $GPGSV,3,1,11,03,09,232,29,08,51,203,36,09,,,36,11,07,195,28*4D
02:38:08  $GPGSV,3,2,11,16,,,38,21,,,17,22,,,24,23,,,38*7D
02:38:08  $GPGSV,3,3,11,26,,,15,27,81,113,41,31,23,103,*72
02:38:08  $GPGLL,2309.50554,N,11320.37958,E,023808.00,A,A*60
02:38:09  $GPRMC,023809.00,A,2309.50458,N,11320.37946,E,2.432,,070617,,,A*7A
02:38:09  $GPVTG,,T,,M,2.432,N,4.504,K,A*21
02:38:09  $GPGGA,023809.00,2309.50458,N,11320.37946,E,1,04,3.84,46.4,M,-5.4,M,,*77
02:38:09  $GPGSA,A,3,03,27,08,11,,,,,,,,,5.03,3.84,3.24*00
02:38:09  $GPGSV,3,1,11,03,09,232,27,08,51,203,29,09,,,34,11,07,195,32*44
02:38:09  $GPGSV,3,2,11,16,,,42,21,,,14,22,,,29,23,,,36*70
02:38:09  $GPGSV,3,3,11,26,,,27,27,81,113,41,31,23,103,*73
02:38:09  $GPGLL,2309.50458,N,11320.37946,E,023809.00,A,A*63
02:38:10  $GPRMC,023810.00,A,2309.50464,N,11320.37896,E,1.537,,070617,,,A*76
02:38:10  $GPVTG,,T,,M,1.537,N,2.847,K,A*2A
02:38:10  $GPGGA,023810.00,2309.50464,N,11320.37896,E,1,05,3.84,46.6,M,-5.4,M,,*7F
02:38:10  $GPGSA,A,3,31,03,27,08,11,,,,,,,,5.03,3.84,3.24*02
02:38:10  $GPGSV,3,1,11,03,09,232,26,08,51,203,34,09,,,31,11,07,195,32*4C
02:38:10  $GPGSV,3,2,11,16,,,40,21,,,12,22,,,28,23,,,34*77
02:38:10  $GPGSV,3,3,11,26,,,28,27,81,113,39,31,23,103,25*74
02:38:10  $GPGLL,2309.50464,N,11320.37896,E,023810.00,A,A*68
02:38:11  $GPRMC,023811.00,A,2309.50420,N,11320.37790,E,2.152,,070617,,,A*7A
02:38:11  $GPVTG,,T,,M,2.152,N,3.985,K,A*20
02:38:11  $GPGGA,023811.00,2309.50420,N,11320.37790,E,1,05,2.70,47.0,M,-5.4,M,,*7A
02:38:11  $GPGSA,A,3,31,03,27,08,11,,,,,,,,3.29,2.70,1.88*02
02:38:11  $GPGSV,3,1,11,03,09,232,25,08,51,203,30,09,,,35,11,07,195,35*48
02:38:11  $GPGSV,3,2,11,16,,,43,21,,,13,22,,,29,23,,,34*74
02:38:11  $GPGSV,3,3,11,26,,,29,27,81,113,42,31,23,103,26*7A
02:38:11  $GPGLL,2309.50420,N,11320.37790,E,023811.00,A,A*60
02:38:12  $GPRMC,023812.00,A,2309.50395,N,11320.37738,E,1.960,,070617,,,A*78
02:38:12  $GPVTG,,T,,M,1.960,N,3.630,K,A*2B
02:38:12  $GPGGA,023812.00,2309.50395,N,11320.37738,E,1,05,2.70,47.1,M,-5.4,M,,*73
02:38:12  $GPGSA,A,3,31,03,27,08,11,,,,,,,,3.29,2.70,1.88*02
02:38:12  $GPGSV,3,1,11,03,09,232,29,08,51,203,33,09,,,35,11,07,195,32*40
02:38:12  $GPGSV,3,2,11,16,,,40,21,,,11,22,,,33,23,,,33*79
02:38:12  $GPGSV,3,3,11,26,,,29,27,81,113,40,31,23,103,25*7B
02:38:12  $GPGLL,2309.50395,N,11320.37738,E,023812.00,A,A*68
02:38:13  $GPRMC,023813.00,A,2309.50339,N,11320.37647,E,2.233,,070617,,,A*78
02:38:13  $GPVTG,,T,,M,2.233,N,4.136,K,A*23
02:38:13  $GPGGA,023813.00,2309.50339,N,11320.37647,E,1,05,2.70,47.3,M,-5.4,M,,*7F
02:38:13  $GPGSA,A,3,31,03,27,08,11,,,,,,,,3.29,2.70,1.88*02
02:38:13  $GPGSV,3,1,11,03,09,232,32,08,51,203,33,09,,,31,11,07,195,32*4E
02:38:13  $GPGSV,3,2,11,16,,,38,21,,,13,22,,,33,23,,,33*74
02:38:13  $GPGSV,3,3,11,26,,,30,27,81,113,41,31,23,103,30*76
02:38:13  $GPGLL,2309.50339,N,11320.37647,E,023813.00,A,A*66
02:38:14  $GPRMC,023814.00,A,2309.50317,N,11320.37459,E,3.407,,070617,,,A*7E
02:38:14  $GPVTG,,T,,M,3.407,N,6.310,K,A*27
02:38:14  $GPGGA,023814.00,2309.50317,N,11320.37459,E,1,05,4.00,47.9,M,-5.4,M,,*72
02:38:14  $GPGSA,A,3,31,03,27,08,11,,,,,,,,4.43,4.00,1.90*01
02:38:14  $GPGSV,3,1,10,03,09,232,28,08,51,203,32,09,,,32,11,07,195,28*4D
02:38:14  $GPGSV,3,2,10,16,,,38,22,,,33,23,,,34,26,,,31*75
02:38:14  $GPGSV,3,3,10,27,81,113,36,31,23,103,22*73
02:38:14  $GPGLL,2309.50317,N,11320.37459,E,023814.00,A,A*60
02:38:15  $GPRMC,023815.00,A,2309.50397,N,11320.37421,E,2.570,,070617,,,A*78
02:38:15  $GPVTG,,T,,M,2.570,N,4.760,K,A*26
02:38:15  $GPGGA,023815.00,2309.50397,N,11320.37421,E,1,04,17.39,45.8,M,-5.4,M,,*4E
02:38:15  $GPGSA,A,2,31,03,27,08,,,,,,,,,17.42,17.39,1.00*02
02:38:15  $GPGSV,3,1,10,03,09,232,26,08,51,203,36,09,,,34,11,07,195,*4B
02:38:15  $GPGSV,3,2,10,16,,,41,22,,,32,23,,,38,26,,,33*74
02:38:15  $GPGSV,3,3,10,27,81,113,39,31,23,103,22*7C
02:38:15  $GPGLL,2309.50397,N,11320.37421,E,023815.00,A,A*66
02:38:16  $GPRMC,023816.00,A,2309.50434,N,11320.37306,E,2.693,,070617,,,A*79
02:38:16  $GPVTG,,T,,M,2.693,N,4.988,K,A*20
02:38:16  $GPGGA,023816.00,2309.50434,N,11320.37306,E,1,05,2.70,45.7,M,-5.4,M,,*76
02:38:16  $GPGSA,A,3,31,03,27,08,11,,,,,,,,3.29,2.70,1.88*02
02:38:16  $GPGSV,3,1,10,03,09,232,23,08,51,203,33,09,,,30,11,07,195,31*4D
02:38:16  $GPGSV,3,2,10,16,,,38,22,,,32,23,,,33,26,,,32*70
02:38:16  $GPGSV,3,3,10,27,81,113,40,31,23,103,24*74
02:38:16  $GPGLL,2309.50434,N,11320.37306,E,023816.00,A,A*69
02:38:17  $GPRMC,023817.00,A,2309.50462,N,11320.37210,E,2.686,,070617,,,A*79
02:38:17  $GPVTG,,T,,M,2.686,N,4.975,K,A*26
02:38:17  $GPGGA,023817.00,2309.50462,N,11320.37210,E,1,05,2.70,45.6,M,-5.4,M,,*73
02:38:17  $GPGSA,A,3,31,03,27,08,11,,,,,,,,3.29,2.70,1.88*02
02:38:17  $GPGSV,3,1,10,03,09,232,30,08,51,203,36,09,,,26,11,07,195,31*4D
02:38:17  $GPGSV,3,2,10,16,,,38,22,,,32,23,,,36,26,,,30*77
02:38:17  $GPGSV,3,3,10,27,81,113,41,31,23,103,26*77
02:38:17  $GPGLL,2309.50462,N,11320.37210,E,023817.00,A,A*6D
02:38:18  $GPRMC,023818.00,A,2309.50409,N,11320.37131,E,2.641,,070617,,,A*70
02:38:18  $GPVTG,,T,,M,2.641,N,4.890,K,A*27
02:38:18  $GPGGA,023818.00,2309.50409,N,11320.37131,E,1,05,2.70,45.4,M,-5.4,M,,*73
02:38:18  $GPGSA,A,3,31,03,27,08,11,,,,,,,,3.29,2.70,1.88*02
02:38:18  $GPGSV,3,1,10,03,09,232,23,08,51,203,34,09,,,25,11,07,195,31*4E
02:38:18  $GPGSV,3,2,10,16,,,40,22,,,33,23,,,34,26,,,31*7A
02:38:18  $GPGSV,3,3,10,27,81,113,41,31,23,103,26*77
02:38:18  $GPGLL,2309.50409,N,11320.37131,E,023818.00,A,A*6F
02:38:19  $GPRMC,023819.00,A,2309.50299,N,11320.37018,E,3.234,,070617,,,A*73
02:38:19  $GPVTG,,T,,M,3.234,N,5.990,K,A*20
02:38:19  $GPGGA,023819.00,2309.50299,N,11320.37018,E,1,05,2.70,45.7,M,-5.4,M,,*74
02:38:19  $GPGSA,A,3,31,03,27,08,11,,,,,,,,3.29,2.70,1.88*02
02:38:19  $GPGSV,3,1,10,03,09,232,25,08,51,203,33,09,,,30,11,07,195,30*4A
02:38:19  $GPGSV,3,2,10,16,,,39,22,,,32,23,,,36,26,,,34*72
02:38:19  $GPGSV,3,3,10,27,81,113,42,31,23,103,31*72
02:38:19  $GPGLL,2309.50299,N,11320.37018,E,023819.00,A,A*6B
02:38:20  $GPRMC,023820.00,A,2309.50256,N,11320.36923,E,3.139,,070617,,,A*74
02:38:20  $GPVTG,,T,,M,3.139,N,5.814,K,A*23
02:38:20  $GPGGA,023820.00,2309.50256,N,11320.36923,E,1,05,2.70,45.8,M,-5.4,M,,*72
02:38:20  $GPGSA,A,3,31,03,27,08,11,,,,,,,,3.29,2.70,1.88*02
02:38:20  $GPGSV,3,1,10,03,09,232,26,08,51,203,27,09,,,31,11,07,195,31*4C
02:38:20  $GPGSV,3,2,10,16,,,41,22,,,31,23,,,34,26,,,30*78
02:38:20  $GPGSV,3,3,10,27,81,113,40,31,23,103,30*71
02:38:20  $GPGLL,2309.50256,N,11320.36923,E,023820.00,A,A*62
02:38:21  $GPRMC,023821.00,A,2309.50208,N,11320.36937,E,1.693,,070617,,,A*7E
02:38:21  $GPVTG,,T,,M,1.693,N,3.135,K,A*2A
02:38:21  $GPGGA,023821.00,2309.50208,N,11320.36937,E,1,05,2.70,46.0,M,-5.4,M,,*76
02:38:21  $GPGSA,A,3,31,03,27,08,11,,,,,,,,3.29,2.70,1.88*02
02:38:21  $GPGSV,3,1,10,03,09,231,26,08,51,203,28,09,,,30,11,07,195,31*41
02:38:21  $GPGSV,3,2,10,16,,,39,22,,,30,23,,,33,26,,,29*79
02:38:21  $GPGSV,3,3,10,27,81,113,40,31,23,103,25*75
02:38:21  $GPGLL,2309.50208,N,11320.36937,E,023821.00,A,A*6D
02:38:22  $GPRMC,023822.00,A,2309.50149,N,11320.36882,E,1.836,,070617,,,A*75
02:38:22  $GPVTG,,T,,M,1.836,N,3.399,K,A*2F
02:38:22  $GPGGA,023822.00,2309.50149,N,11320.36882,E,1,05,3.33,46.2,M,-5.4,M,,*78
02:38:22  $GPGSA,A,3,31,03,27,08,11,,,,,,,,4.34,3.33,2.78*03
02:38:22  $GPGSV,3,1,10,03,09,231,22,08,51,203,27,09,,,29,11,07,195,31*42
02:38:22  $GPGSV,3,2,10,16,,,37,22,,,29,23,,,33,26,,,28*7E
02:38:22  $GPGSV,3,3,10,27,81,113,40,31,23,103,25*75
02:38:22  $GPGLL,2309.50149,N,11320.36882,E,023822.00,A,A*67
02:38:23  $GPRMC,023823.00,A,2309.50147,N,11320.36759,E,2.305,,070617,,,A*7B
02:38:23  $GPVTG,,T,,M,2.305,N,4.268,K,A*2F
02:38:23  $GPGGA,023823.00,2309.50147,N,11320.36759,E,1,04,3.33,46.4,M,-5.4,M,,*79
02:38:23  $GPGSA,A,3,31,03,27,11,,,,,,,,,4.34,3.33,2.78*0B
02:38:23  $GPGSV,3,1,10,03,09,231,24,08,51,203,,09,,,29,11,07,195,31*41
02:38:23  $GPGSV,3,2,10,16,,,39,22,,,30,23,,,35,26,,,29*7F
02:38:23  $GPGSV,3,3,10,27,81,113,41,31,23,103,30*70
02:38:23  $GPGLL,2309.50147,N,11320.36759,E,023823.00,A,A*61
02:38:24  $GPRMC,023824.00,A,2309.50230,N,11320.36610,E,2.781,,070617,,,A*7B
02:38:24  $GPVTG,,T,,M,2.781,N,5.150,K,A*2E
02:38:24  $GPGGA,023824.00,2309.50230,N,11320.36610,E,1,05,2.70,46.3,M,-5.4,M,,*71
02:38:24  $GPGSA,A,3,31,03,27,08,11,,,,,,,,3.29,2.70,1.88*02
02:38:24  $GPGSV,3,1,10,03,09,231,23,08,51,203,30,09,,,31,11,07,195,27*4B
02:38:24  $GPGSV,3,2,10,16,,,40,22,,,25,23,,,33,26,,,30*7B
02:38:24  $GPGSV,3,3,10,27,81,113,40,31,23,103,27*77
02:38:24  $GPGLL,2309.50230,N,11320.36610,E,023824.00,A,A*69
02:38:25  $GPRMC,023825.00,A,2309.50230,N,11320.36511,E,2.774,,070617,,,A*72
02:38:25  $GPVTG,,T,,M,2.774,N,5.137,K,A*25
02:38:25  $GPGGA,023825.00,2309.50230,N,11320.36511,E,1,05,2.70,46.5,M,-5.4,M,,*74
02:38:25  $GPGSA,A,3,31,03,27,08,11,,,,,,,,3.29,2.70,1.88*02
02:38:25  $GPGSV,3,1,10,03,09,231,23,08,51,203,30,09,,,34,11,07,195,31*49
02:38:25  $GPGSV,3,2,10,16,,,40,22,,,27,23,,,33,26,,,29*71
02:38:25  $GPGSV,3,3,10,27,81,113,41,31,23,103,29*78
02:38:25  $GPGLL,2309.50230,N,11320.36511,E,023825.00,A,A*6A
02:38:26  $GPRMC,023826.00,A,2309.50161,N,11320.36408,E,3.085,,070617,,,A*77
02:38:26  $GPVTG,,T,,M,3.085,N,5.714,K,A*2A
02:38:26  $GPGGA,023826.00,2309.50161,N,11320.36408,E,1,05,2.70,46.6,M,-5.4,M,,*7A
02:38:26  $GPGSA,A,3,31,03,27,08,11,,,,,,,,3.29,2.70,1.88*02
02:38:26  $GPGSV,3,1,10,03,09,231,29,08,52,203,26,09,,,32,11,07,195,28*49
02:38:26  $GPGSV,3,2,10,16,,,38,22,,,27,23,,,34,26,,,29*79
02:38:26  $GPGSV,3,3,10,27,81,113,41,31,23,103,30*70
02:38:26  $GPGLL,2309.50161,N,11320.36408,E,023826.00,A,A*67
02:38:27  $GPRMC,023827.00,A,2309.50207,N,11320.36271,E,3.578,219.83,070617,,,A*65
02:38:27  $GPVTG,219.83,T,,M,3.578,N,6.627,K,A*30
02:38:27  $GPGGA,023827.00,2309.50207,N,11320.36271,E,1,05,2.70,46.6,M,-5.4,M,,*70
02:38:27  $GPGSA,A,3,31,03,27,08,11,,,,,,,,3.29,2.70,1.88*02
02:38:27  $GPGSV,3,1,10,03,09,231,30,08,52,203,32,09,,,29,11,07,195,28*4E
02:38:27  $GPGSV,3,2,10,16,,,38,22,,,28,23,,,34,26,,,30*7E
02:38:27  $GPGSV,3,3,10,27,81,113,39,31,23,103,22*7C
02:38:27  $GPGLL,2309.50207,N,11320.36271,E,023827.00,A,A*6D
02:38:28  $GPRMC,023828.00,A,2309.49904,N,11320.36274,E,3.784,226.54,070617,,,A*68
02:38:28  $GPVTG,226.54,T,,M,3.784,N,7.008,K,A*3D
02:38:28  $GPGGA,023828.00,2309.49904,N,11320.36274,E,1,05,2.70,47.0,M,-5.4,M,,*7D
02:38:28  $GPGSA,A,3,31,03,27,08,11,,,,,,,,3.29,2.70,1.88*02
02:38:28  $GPGSV,3,1,10,03,09,231,29,08,52,203,28,09,,,29,11,07,195,27*42
02:38:28  $GPGSV,3,2,10,16,,,38,22,,,29,23,,,34,26,,,31*7E
02:38:28  $GPGSV,3,3,10,27,81,113,41,31,23,103,23*72
02:38:28  $GPGLL,2309.49904,N,11320.36274,E,023828.00,A,A*67
02:38:29  $GPRMC,023829.00,A,2309.49854,N,11320.36184,E,3.556,,070617,,,A*75
02:38:29  $GPVTG,,T,,M,3.556,N,6.586,K,A*2B
02:38:29  $GPGGA,023829.00,2309.49854,N,11320.36184,E,1,05,2.70,46.9,M,-5.4,M,,*7C
02:38:29  $GPGSA,A,3,31,03,27,08,11,,,,,,,,3.29,2.70,1.88*02
02:38:29  $GPGSV,3,1,10,03,09,231,28,08,52,203,36,09,,,33,11,07,194,35*45
02:38:29  $GPGSV,3,2,10,16,,,41,22,,,35,23,,,38,26,,,29*78
02:38:29  $GPGSV,3,3,10,27,81,113,45,31,23,103,35*71
02:38:29  $GPGLL,2309.49854,N,11320.36184,E,023829.00,A,A*6E
02:38:30  $GPRMC,023830.00,A,2309.49847,N,11320.36063,E,3.371,,070617,,,A*74
02:38:30  $GPVTG,,T,,M,3.371,N,6.243,K,A*26
02:38:30  $GPGGA,023830.00,2309.49847,N,11320.36063,E,1,05,2.70,47.1,M,-5.4,M,,*77
02:38:30  $GPGSA,A,3,31,03,27,08,11,,,,,,,,3.29,2.70,1.88*02
02:38:30  $GPGSV,3,1,11,03,09,231,32,08,52,203,35,09,,,32,11,07,194,30*48
02:38:30  $GPGSV,3,2,11,16,,,39,22,,,35,23,,,37,26,,,33*72
02:38:30  $GPGSV,3,3,11,27,81,113,42,29,,,25,31,23,103,36*78
02:38:30  $GPGLL,2309.49847,N,11320.36063,E,023830.00,A,A*6C
02:38:31  $GPRMC,023831.00,A,2309.49831,N,11320.35892,E,4.270,241.07,070617,,,A*68
02:38:31  $GPVTG,241.07,T,,M,4.270,N,7.908,K,A*3A
02:38:31  $GPGGA,023831.00,2309.49831,N,11320.35892,E,1,05,2.70,47.3,M,-5.4,M,,*70
02:38:31  $GPGSA,A,3,31,03,27,08,11,,,,,,,,3.29,2.70,1.88*02
02:38:31  $GPGSV,3,1,11,03,09,231,31,08,52,203,35,09,,,37,11,07,194,29*46
02:38:31  $GPGSV,3,2,11,16,,,42,22,,,32,23,,,34,26,,,32*7B
02:38:31  $GPGSV,3,3,11,27,81,113,44,29,,,23,31,23,103,28*77
02:38:31  $GPGLL,2309.49831,N,11320.35892,E,023831.00,A,A*69
02:38:32  $GPRMC,023832.00,A,2309.49800,N,11320.35805,E,3.685,245.58,070617,,,A*60
02:38:32  $GPVTG,245.58,T,,M,3.685,N,6.824,K,A*33
02:38:32  $GPGGA,023832.00,2309.49800,N,11320.35805,E,1,05,2.70,47.4,M,-5.4,M,,*78
02:38:32  $GPGSA,A,3,31,03,27,08,11,,,,,,,,3.29,2.70,1.88*02
02:38:32  $GPGSV,3,1,11,03,09,231,25,08,52,203,31,09,,,31,11,07,194,32*4B
02:38:32  $GPGSV,3,2,11,16,,,39,22,,,31,23,,,34,26,,,32*74
02:38:32  $GPGSV,3,3,11,27,81,113,41,29,,,19,31,23,103,27*74
02:38:32  $GPGLL,2309.49800,N,11320.35805,E,023832.00,A,A*66
02:38:33  $GPRMC,023833.00,A,2309.49802,N,11320.35656,E,4.159,252.47,070617,,,A*62
02:38:33  $GPVTG,252.47,T,,M,4.159,N,7.702,K,A*30
02:38:33  $GPGGA,023833.00,2309.49802,N,11320.35656,E,1,05,3.83,47.3,M,-5.4,M,,*79
02:38:33  $GPGSA,A,3,31,03,27,08,11,,,,,,,,5.02,3.83,3.24*04
02:38:33  $GPGSV,3,1,11,03,09,231,22,08,52,203,32,09,,,31,11,07,194,29*45
02:38:33  $GPGSV,3,2,11,16,,,38,22,,,27,23,,,33,26,,,28*7E
02:38:33  $GPGSV,3,3,11,27,81,113,38,29,,,15,31,23,103,24*75
02:38:33  $GPGLL,2309.49802,N,11320.35656,E,023833.00,A,A*6D
02:38:34  $GPRMC,023834.00,A,2309.49816,N,11320.35555,E,3.763,257.46,070617,,,A*6C
02:38:34  $GPVTG,257.46,T,,M,3.763,N,6.969,K,A*3E
02:38:34  $GPGGA,023834.00,2309.49816,N,11320.35555,E,1,05,3.83,47.3,M,-5.4,M,,*7B
02:38:34  $GPGSA,A,3,31,03,27,08,11,,,,,,,,5.02,3.83,3.24*04
02:38:34  $GPGSV,3,1,10,03,09,231,22,08,52,203,32,09,,,34,11,07,194,30*49
02:38:34  $GPGSV,3,2,10,16,,,39,22,,,27,23,,,36,26,,,30*72
02:38:34  $GPGSV,3,3,10,27,81,113,40,31,23,103,24*74
02:38:34  $GPGLL,2309.49816,N,11320.35555,E,023834.00,A,A*6F
02:38:35  $GPRMC,023835.00,A,2309.49901,N,11320.35466,E,3.312,266.08,070617,,,A*61
02:38:35  $GPVTG,266.08,T,,M,3.312,N,6.133,K,A*33
02:38:35  $GPGGA,023835.00,2309.49901,N,11320.35466,E,1,05,2.70,47.2,M,-5.4,M,,*70
02:38:35  $GPGSA,A,3,31,03,27,08,11,,,,,,,,3.29,2.70,1.88*02
02:38:35  $GPGSV,3,1,10,03,09,231,23,08,52,203,38,09,,,31,11,07,194,25*43
02:38:35  $GPGSV,3,2,10,16,,,41,22,,,26,23,,,34,26,,,30*7E
02:38:35  $GPGSV,3,3,10,27,81,113,37,31,23,103,24*74
02:38:35  $GPGLL,2309.49901,N,11320.35466,E,023835.00,A,A*68
02:38:36  $GPRMC,023836.00,A,2309.49876,N,11320.35389,E,3.059,,070617,,,A*7D
02:38:36  $GPVTG,,T,,M,3.059,N,5.665,K,A*2C
02:38:36  $GPGGA,023836.00,2309.49876,N,11320.35389,E,1,05,2.70,47.4,M,-5.4,M,,*72
02:38:36  $GPGSA,A,3,31,03,27,08,11,,,,,,,,3.29,2.70,1.88*02
02:38:36  $GPGSV,3,1,10,03,09,231,30,08,52,203,28,09,,,32,11,07,194,27*41
02:38:36  $GPGSV,3,2,10,16,,,39,22,,,26,23,,,34,26,,,30*71
02:38:36  $GPGSV,3,3,10,27,81,113,42,31,23,103,30*73
02:38:36  $GPGLL,2309.49876,N,11320.35389,E,023836.00,A,A*6C
02:38:37  $GPRMC,023837.00,A,2309.50025,N,11320.35247,E,3.435,281.76,070617,,,A*63
02:38:37  $GPVTG,281.76,T,,M,3.435,N,6.362,K,A*37
02:38:37  $GPGGA,023837.00,2309.50025,N,11320.35247,E,1,05,2.70,47.4,M,-5.4,M,,*76
02:38:37  $GPGSA,A,3,31,03,27,08,11,,,,,,,,3.29,2.70,1.88*02
02:38:37  $GPGSV,3,1,10,03,09,231,22,08,52,203,28,09,,,32,11,07,194,32*46
02:38:37  $GPGSV,3,2,10,16,,,36,22,,,26,23,,,30,26,,,31*7B
02:38:37  $GPGSV,3,3,10,27,81,113,38,31,23,103,31*7F
02:38:37  $GPGLL,2309.50025,N,11320.35247,E,023837.00,A,A*68
02:38:38  $GPRMC,023838.00,A,2309.49933,N,11320.35245,E,2.123,,070617,,,A*7F
02:38:38  $GPVTG,,T,,M,2.123,N,3.931,K,A*29
02:38:38  $GPGGA,023838.00,2309.49933,N,11320.35245,E,1,05,2.70,47.7,M,-5.4,M,,*7E
02:38:38  $GPGSA,A,3,31,03,27,08,11,,,,,,,,3.29,2.70,1.89*03
02:38:38  $GPGSV,3,1,10,03,09,231,22,08,52,203,31,09,,,32,11,07,194,26*4B
02:38:38  $GPGSV,3,2,10,16,,,39,22,,,27,23,,,30,26,,,29*7C
02:38:38  $GPGSV,3,3,10,27,81,113,41,31,23,103,31*71
02:38:38  $GPGLL,2309.49933,N,11320.35245,E,023838.00,A,A*63
02:38:39  $GPRMC,023839.00,A,2309.49868,N,11320.35167,E,2.286,,070617,,,A*7E
02:38:39  $GPVTG,,T,,M,2.286,N,4.235,K,A*2D
02:38:39  $GPGGA,023839.00,2309.49868,N,11320.35167,E,1,05,2.70,47.8,M,-5.4,M,,*7C
02:38:39  $GPGSA,A,3,31,03,27,08,11,,,,,,,,3.29,2.70,1.89*03
02:38:39  $GPGSV,3,1,10,03,09,231,22,08,52,203,31,09,,,34,11,07,194,27*4C
02:38:39  $GPGSV,3,2,10,16,,,40,22,,,26,23,,,34,26,,,29*77
02:38:39  $GPGSV,3,3,10,27,81,113,41,31,23,103,31*71
02:38:39  $GPGLL,2309.49868,N,11320.35167,E,023839.00,A,A*6E
02:38:40  $GPRMC,023840.00,A,2309.49819,N,11320.35068,E,2.595,,070617,,,A*7D
02:38:40  $GPVTG,,T,,M,2.595,N,4.807,K,A*23
02:38:40  $GPGGA,023840.00,2309.49819,N,11320.35068,E,1,05,2.70,47.9,M,-5.4,M,,*7B
02:38:40  $GPGSA,A,3,31,03,27,08,11,,,,,,,,3.29,2.70,1.89*03
02:38:40  $GPGSV,3,1,10,03,09,231,23,08,52,203,30,09,,,34,11,07,194,28*43
02:38:40  $GPGSV,3,2,10,16,,,40,22,,,26,23,,,33,26,,,29*70
02:38:40  $GPGSV,3,3,10,27,81,113,41,31,23,103,31*71
02:38:40  $GPGLL,2309.49819,N,11320.35068,E,023840.00,A,A*68
02:38:41  $GPRMC,023841.00,A,2309.49772,N,11320.34979,E,2.629,,070617,,,A*72
02:38:41  $GPVTG,,T,,M,2.629,N,4.869,K,A*2F
02:38:41  $GPGGA,023841.00,2309.49772,N,11320.34979,E,1,05,2.70,48.1,M,-5.4,M,,*77
02:38:41  $GPGSA,A,3,31,03,27,08,11,,,,,,,,3.29,2.70,1.89*03
02:38:41  $GPGSV,3,1,10,03,09,231,23,08,52,203,25,09,,,34,11,07,194,29*46
02:38:41  $GPGSV,3,2,10,16,,,39,22,,,25,23,,,33,26,,,28*7C
02:38:41  $GPGSV,3,3,10,27,81,113,38,31,23,103,31*7F
02:38:41  $GPGLL,2309.49772,N,11320.34979,E,023841.00,A,A*63
02:38:42  $GPRMC,023842.00,A,2309.49697,N,11320.34923,E,2.448,,070617,,,A*71
02:38:42  $GPVTG,,T,,M,2.448,N,4.534,K,A*2F
02:38:42  $GPGGA,023842.00,2309.49697,N,11320.34923,E,1,05,2.70,48.3,M,-5.4,M,,*73
02:38:42  $GPGSA,A,3,31,03,27,08,11,,,,,,,,3.29,2.70,1.89*03
02:38:42  $GPGSV,3,1,10,03,09,231,24,08,52,203,31,09,,,32,11,07,194,31*4B
02:38:42  $GPGSV,3,2,10,16,,,37,22,,,26,23,,,33,26,,,29*70
02:38:42  $GPGSV,3,3,10,27,81,113,38,31,23,103,31*7F
02:38:42  $GPGLL,2309.49697,N,11320.34923,E,023842.00,A,A*65
02:38:43  $GPRMC,023843.00,A,2309.49662,N,11320.34849,E,2.563,,070617,,,A*7F
02:38:43  $GPVTG,,T,,M,2.563,N,4.747,K,A*21
02:38:43  $GPGGA,023843.00,2309.49662,N,11320.34849,E,1,05,2.70,48.5,M,-5.4,M,,*73
02:38:43  $GPGSA,A,3,31,03,27,08,11,,,,,,,,3.29,2.70,1.89*03
02:38:43  $GPGSV,3,1,10,03,09,231,29,08,52,203,31,09,,,35,11,07,194,30*40
